stk/BookEx7_2ODTK/testallperts.tdm

CCSDS_TDM_VERS = 1.0

COMMENT File created by ODTK.
COMMENT Range and doppler values are 2-way values.

CREATION_DATE  = 2017-11-17T15:38:44
ORIGINATOR     = ODTK

META_START
    TIME_SYSTEM          = UTC
    START_TIME           = 2012-08-20T11:00:00.000
    STOP_TIME            = 2012-08-20T18:00:00.000
    PARTICIPANT_1        = 222
    PARTICIPANT_2        = 11111
    MODE                 = SEQUENTIAL
    PATH                 = 2,1
    TIMETAG_REF          = RECEIVE
    REFERENCE_FRAME      = EME2000
    ANGLE_TYPE           = RADEC
META_STOP

DATA_START
    ANGLE_1              = 2012-08-20T11:00:00.000      28.5208829055647
    ANGLE_2              = 2012-08-20T11:00:00.000     -6.23694723958417
    ANGLE_1              = 2012-08-20T11:01:00.000      28.6703594773579
    ANGLE_2              = 2012-08-20T11:01:00.000     -6.02280732289458
    ANGLE_1              = 2012-08-20T11:02:00.000      28.8189060634061
    ANGLE_2              = 2012-08-20T11:02:00.000     -5.81074419001574
    ANGLE_1              = 2012-08-20T11:03:00.000      28.9687893455415
    ANGLE_2              = 2012-08-20T11:03:00.000     -5.5957988544681
    ANGLE_1              = 2012-08-20T11:04:00.000      29.117400967755
    ANGLE_2              = 2012-08-20T11:04:00.000     -5.38110316467755
    ANGLE_1              = 2012-08-20T11:05:00.000      29.2677400125468
    ANGLE_2              = 2012-08-20T11:05:00.000     -5.16484784824623
    ANGLE_1              = 2012-08-20T11:06:00.000      29.4189097546798
    ANGLE_2              = 2012-08-20T11:06:00.000     -4.95057716649924
    ANGLE_1              = 2012-08-20T11:07:00.000      29.5683293264327
    ANGLE_2              = 2012-08-20T11:07:00.000     -4.73654209625407
    ANGLE_1              = 2012-08-20T11:08:00.000      29.7158953469584
    ANGLE_2              = 2012-08-20T11:08:00.000     -4.51998268261431
    ANGLE_1              = 2012-08-20T11:09:00.000      29.8672955743764
    ANGLE_2              = 2012-08-20T11:09:00.000     -4.30494982076182
    ANGLE_1              = 2012-08-20T11:10:00.000      30.0164673756806
    ANGLE_2              = 2012-08-20T11:10:00.000     -4.08969625610344
    ANGLE_1              = 2012-08-20T11:11:00.000      30.1663788987552
    ANGLE_2              = 2012-08-20T11:11:00.000     -3.87584699546418
    ANGLE_1              = 2012-08-20T11:12:00.000      30.3158107152206
    ANGLE_2              = 2012-08-20T11:12:00.000     -3.65937365252431
    ANGLE_1              = 2012-08-20T11:13:00.000      30.4664180557136
    ANGLE_2              = 2012-08-20T11:13:00.000     -3.44203239628053
    ANGLE_1              = 2012-08-20T11:14:00.000      30.6141858955407
    ANGLE_2              = 2012-08-20T11:14:00.000     -3.22772170786893
    ANGLE_1              = 2012-08-20T11:15:00.000      30.7631849948611
    ANGLE_2              = 2012-08-20T11:15:00.000     -3.00998319813201
    ANGLE_1              = 2012-08-20T11:16:00.000      30.9125042726155
    ANGLE_2              = 2012-08-20T11:16:00.000     -2.79333246273594
    ANGLE_1              = 2012-08-20T11:17:00.000      31.064589152998
    ANGLE_2              = 2012-08-20T11:17:00.000     -2.57539071882846
    ANGLE_1              = 2012-08-20T11:18:00.000      31.2128838660035
    ANGLE_2              = 2012-08-20T11:18:00.000     -2.35989434098091
    ANGLE_1              = 2012-08-20T11:19:00.000      31.3647632110183
    ANGLE_2              = 2012-08-20T11:19:00.000     -2.14553238441814
    ANGLE_1              = 2012-08-20T11:20:00.000      31.5140130150451
    ANGLE_2              = 2012-08-20T11:20:00.000     -1.92871702028648
    ANGLE_1              = 2012-08-20T11:21:00.000      31.6664655597552
    ANGLE_2              = 2012-08-20T11:21:00.000     -1.71180252779206
    ANGLE_1              = 2012-08-20T11:22:00.000      31.8149197175487
    ANGLE_2              = 2012-08-20T11:22:00.000     -1.49532218103058
    ANGLE_1              = 2012-08-20T11:23:00.000      31.9645756836027
    ANGLE_2              = 2012-08-20T11:23:00.000     -1.28033677721373
    ANGLE_1              = 2012-08-20T11:24:00.000      32.116379771957
    ANGLE_2              = 2012-08-20T11:24:00.000     -1.06319240256204
    ANGLE_1              = 2012-08-20T11:25:00.000      32.2657748925645
    ANGLE_2              = 2012-08-20T11:25:00.000     -0.84757450288129
    ANGLE_1              = 2012-08-20T11:26:00.000      32.4178498397475
    ANGLE_2              = 2012-08-20T11:26:00.000     -0.629150055555922
    ANGLE_1              = 2012-08-20T11:27:00.000      32.5678098398817
    ANGLE_2              = 2012-08-20T11:27:00.000     -0.412265256413329
    ANGLE_1              = 2012-08-20T11:28:00.000      32.7182573352753
    ANGLE_2              = 2012-08-20T11:28:00.000     -0.194523839270297
    ANGLE_1              = 2012-08-20T11:29:00.000      32.8719647385668
    ANGLE_2              = 2012-08-20T11:29:00.000      0.0213429071306534
    ANGLE_1              = 2012-08-20T11:30:00.000      33.0229377895142
    ANGLE_2              = 2012-08-20T11:30:00.000      0.239695753427461
    ANGLE_1              = 2012-08-20T11:31:00.000      33.1745851213628
    ANGLE_2              = 2012-08-20T11:31:00.000      0.458108785422472
    ANGLE_1              = 2012-08-20T11:32:00.000      33.3278300328718
    ANGLE_2              = 2012-08-20T11:32:00.000      0.674617636815144
    ANGLE_1              = 2012-08-20T11:33:00.000      33.4780221432847
    ANGLE_2              = 2012-08-20T11:33:00.000      0.890056189492087
    ANGLE_1              = 2012-08-20T11:34:00.000      33.629032355702
    ANGLE_2              = 2012-08-20T11:34:00.000      1.1096059366926
    ANGLE_1              = 2012-08-20T11:35:00.000      33.7811362609573
    ANGLE_2              = 2012-08-20T11:35:00.000      1.32609004213737
    ANGLE_1              = 2012-08-20T11:36:00.000      33.9330280841655
    ANGLE_2              = 2012-08-20T11:36:00.000      1.54363281343633
    ANGLE_1              = 2012-08-20T11:37:00.000      34.0857273576087
    ANGLE_2              = 2012-08-20T11:37:00.000      1.75914202903004
    ANGLE_1              = 2012-08-20T11:38:00.000      34.2395304244487
    ANGLE_2              = 2012-08-20T11:38:00.000      1.97646970775548
    ANGLE_1              = 2012-08-20T11:39:00.000      34.3912543025834
    ANGLE_2              = 2012-08-20T11:39:00.000      2.19374333137529
    ANGLE_1              = 2012-08-20T11:40:00.000      34.5445466409538
    ANGLE_2              = 2012-08-20T11:40:00.000      2.4086961733994
    ANGLE_1              = 2012-08-20T11:41:00.000      34.6958227129853
    ANGLE_2              = 2012-08-20T11:41:00.000      2.62773478775307
    ANGLE_1              = 2012-08-20T11:42:00.000      34.8476383977547
    ANGLE_2              = 2012-08-20T11:42:00.000      2.84274837532522
    ANGLE_1              = 2012-08-20T11:43:00.000      34.9995177322672
    ANGLE_2              = 2012-08-20T11:43:00.000      3.05967469182701
    ANGLE_1              = 2012-08-20T11:44:00.000      35.1541479118806
    ANGLE_2              = 2012-08-20T11:44:00.000      3.27486490189864
    ANGLE_1              = 2012-08-20T11:45:00.000      35.3077925658371
    ANGLE_2              = 2012-08-20T11:45:00.000      3.49478010314461
    ANGLE_1              = 2012-08-20T11:46:00.000      35.4620252567822
    ANGLE_2              = 2012-08-20T11:46:00.000      3.7113651595784
    ANGLE_1              = 2012-08-20T11:47:00.000      35.6162842244918
    ANGLE_2              = 2012-08-20T11:47:00.000      3.92716389458641
    ANGLE_1              = 2012-08-20T11:48:00.000      35.767662906718
    ANGLE_2              = 2012-08-20T11:48:00.000      4.14357057178894
    ANGLE_1              = 2012-08-20T11:49:00.000      35.9224361216189
    ANGLE_2              = 2012-08-20T11:49:00.000      4.36033045662721
    ANGLE_1              = 2012-08-20T11:50:00.000      36.0758144062771
    ANGLE_2              = 2012-08-20T11:50:00.000      4.57754823475403
    ANGLE_1              = 2012-08-20T11:51:00.000      36.2312761656771
    ANGLE_2              = 2012-08-20T11:51:00.000      4.79344700193644
    ANGLE_1              = 2012-08-20T11:52:00.000      36.3855688100225
    ANGLE_2              = 2012-08-20T11:52:00.000      5.00829473747607
    ANGLE_1              = 2012-08-20T11:53:00.000      36.5421224492064
    ANGLE_2              = 2012-08-20T11:53:00.000      5.22566081961969
    ANGLE_1              = 2012-08-20T11:54:00.000      36.6964280775394
    ANGLE_2              = 2012-08-20T11:54:00.000      5.44166639997462
    ANGLE_1              = 2012-08-20T11:55:00.000      36.8517474685201
    ANGLE_2              = 2012-08-20T11:55:00.000      5.65863275972213
    ANGLE_1              = 2012-08-20T11:56:00.000      37.0078748904938
    ANGLE_2              = 2012-08-20T11:56:00.000      5.87559351684498
    ANGLE_1              = 2012-08-20T11:57:00.000      37.1647404858465
    ANGLE_2              = 2012-08-20T11:57:00.000      6.09200414844865
    ANGLE_1              = 2012-08-20T11:58:00.000      37.3190623853739
    ANGLE_2              = 2012-08-20T11:58:00.000      6.30829830469328
    ANGLE_1              = 2012-08-20T11:59:00.000      37.475517554988
    ANGLE_2              = 2012-08-20T11:59:00.000      6.52502108879975
    ANGLE_1              = 2012-08-20T12:00:00.000      37.6349766217074
    ANGLE_2              = 2012-08-20T12:00:00.000      6.74148411748421
    ANGLE_1              = 2012-08-20T12:01:00.000      37.7912349946962
    ANGLE_2              = 2012-08-20T12:01:00.000      6.95965771714468
    ANGLE_1              = 2012-08-20T12:02:00.000      37.9479174071732
    ANGLE_2              = 2012-08-20T12:02:00.000      7.17689355056975
    ANGLE_1              = 2012-08-20T12:03:00.000      38.1054513836496
    ANGLE_2              = 2012-08-20T12:03:00.000      7.39352397404696
    ANGLE_1              = 2012-08-20T12:04:00.000      38.2616854975284
    ANGLE_2              = 2012-08-20T12:04:00.000      7.60986301155734
    ANGLE_1              = 2012-08-20T12:05:00.000      38.4194340764593
    ANGLE_2              = 2012-08-20T12:05:00.000      7.82457969686797
    ANGLE_1              = 2012-08-20T12:06:00.000      38.576878249401
    ANGLE_2              = 2012-08-20T12:06:00.000      8.04290330244899
    ANGLE_1              = 2012-08-20T12:07:00.000      38.7358216361936
    ANGLE_2              = 2012-08-20T12:07:00.000      8.26129379525928
    ANGLE_1              = 2012-08-20T12:08:00.000      38.8926345490344
    ANGLE_2              = 2012-08-20T12:08:00.000      8.47882883453529
    ANGLE_1              = 2012-08-20T12:09:00.000      39.0523338913199
    ANGLE_2              = 2012-08-20T12:09:00.000      8.69639476383541
    ANGLE_1              = 2012-08-20T12:10:00.000      39.2100916170422
    ANGLE_2              = 2012-08-20T12:10:00.000      8.91146848639806
    ANGLE_1              = 2012-08-20T12:11:00.000      39.3690168963622
    ANGLE_2              = 2012-08-20T12:11:00.000      9.12809611357023
    ANGLE_1              = 2012-08-20T12:12:00.000      39.5272961938889
    ANGLE_2              = 2012-08-20T12:12:00.000      9.34433783008258
    ANGLE_1              = 2012-08-20T12:13:00.000      39.6887166931862
    ANGLE_2              = 2012-08-20T12:13:00.000      9.56017706103437
    ANGLE_1              = 2012-08-20T12:14:00.000      39.8478895221912
    ANGLE_2              = 2012-08-20T12:14:00.000      9.77605751152961
    ANGLE_1              = 2012-08-20T12:15:00.000      40.0084393529748
    ANGLE_2              = 2012-08-20T12:15:00.000      9.99078506719126
    ANGLE_1              = 2012-08-20T12:16:00.000      40.16908338513
    ANGLE_2              = 2012-08-20T12:16:00.000      10.2053387508353
    ANGLE_1              = 2012-08-20T12:17:00.000      40.328726088826
    ANGLE_2              = 2012-08-20T12:17:00.000      10.4200087744835
    ANGLE_1              = 2012-08-20T12:18:00.000      40.4898937424861
    ANGLE_2              = 2012-08-20T12:18:00.000      10.6350017857367
    ANGLE_1              = 2012-08-20T12:19:00.000      40.6501556057691
    ANGLE_2              = 2012-08-20T12:19:00.000      10.8509375561658
    ANGLE_1              = 2012-08-20T12:20:00.000      40.8133185217307
    ANGLE_2              = 2012-08-20T12:20:00.000      11.0680118237148
    ANGLE_1              = 2012-08-20T12:21:00.000      40.9763304912932
    ANGLE_2              = 2012-08-20T12:21:00.000      11.2828971358921
    ANGLE_1              = 2012-08-20T12:22:00.000      41.1373025485701
    ANGLE_2              = 2012-08-20T12:22:00.000      11.4965753401364
    ANGLE_1              = 2012-08-20T12:23:00.000      41.2997762101109
    ANGLE_2              = 2012-08-20T12:23:00.000      11.7130805042989
    ANGLE_1              = 2012-08-20T12:24:00.000      41.4614984135814
    ANGLE_2              = 2012-08-20T12:24:00.000      11.9263208048097
    ANGLE_1              = 2012-08-20T12:25:00.000      41.6239390523377
    ANGLE_2              = 2012-08-20T12:25:00.000      12.1398970793528
    ANGLE_1              = 2012-08-20T12:26:00.000      41.7879397841785
    ANGLE_2              = 2012-08-20T12:26:00.000      12.3566532824861
    ANGLE_1              = 2012-08-20T12:27:00.000      41.9528583415936
    ANGLE_2              = 2012-08-20T12:27:00.000      12.570506999642
    ANGLE_1              = 2012-08-20T12:28:00.000      42.1167223339921
    ANGLE_2              = 2012-08-20T12:28:00.000      12.7863603317109
    ANGLE_1              = 2012-08-20T12:29:00.000      42.2849299506452
    ANGLE_2              = 2012-08-20T12:29:00.000      12.9994305357052
    ANGLE_1              = 2012-08-20T12:30:00.000      42.4501908543625
    ANGLE_2              = 2012-08-20T12:30:00.000      13.2123970482467
    ANGLE_1              = 2012-08-20T12:31:00.000      42.6166551831709
    ANGLE_2              = 2012-08-20T12:31:00.000      13.4274137121975
    ANGLE_1              = 2012-08-20T12:32:00.000      42.7806781194943
    ANGLE_2              = 2012-08-20T12:32:00.000      13.6402917271566
    ANGLE_1              = 2012-08-20T12:33:00.000      42.9472389475691
    ANGLE_2              = 2012-08-20T12:33:00.000      13.8560124613378
    ANGLE_1              = 2012-08-20T12:34:00.000      43.1135491590396
    ANGLE_2              = 2012-08-20T12:34:00.000      14.0685011175959
    ANGLE_1              = 2012-08-20T12:35:00.000      43.2829137774024
    ANGLE_2              = 2012-08-20T12:35:00.000      14.2816347302509
    ANGLE_1              = 2012-08-20T12:36:00.000      43.4509323163293
    ANGLE_2              = 2012-08-20T12:36:00.000      14.49549903966
    ANGLE_1              = 2012-08-20T12:37:00.000      43.6205537232091
    ANGLE_2              = 2012-08-20T12:37:00.000      14.7086405264194
    ANGLE_1              = 2012-08-20T12:38:00.000      43.7885728745236
    ANGLE_2              = 2012-08-20T12:38:00.000      14.9227363352564
    ANGLE_1              = 2012-08-20T12:39:00.000      43.9578932385129
    ANGLE_2              = 2012-08-20T12:39:00.000      15.1366960131079
    ANGLE_1              = 2012-08-20T12:40:00.000      44.1268481574174
    ANGLE_2              = 2012-08-20T12:40:00.000      15.3481926142621
    ANGLE_1              = 2012-08-20T12:41:00.000      44.2976238991316
    ANGLE_2              = 2012-08-20T12:41:00.000      15.5615082211219
    ANGLE_1              = 2012-08-20T12:42:00.000      44.4669580477003
    ANGLE_2              = 2012-08-20T12:42:00.000      15.7749613916233
    ANGLE_1              = 2012-08-20T12:43:00.000      44.6378194173528
    ANGLE_2              = 2012-08-20T12:43:00.000      15.986269912851
    ANGLE_1              = 2012-08-20T12:44:00.000      44.8068592354822
    ANGLE_2              = 2012-08-20T12:44:00.000      16.1983780945721
    ANGLE_1              = 2012-08-20T12:45:00.000      44.980524909276
    ANGLE_2              = 2012-08-20T12:45:00.000      16.4120770116034
    ANGLE_1              = 2012-08-20T12:46:00.000      45.1523923177965
    ANGLE_2              = 2012-08-20T12:46:00.000      16.6236624832686
    ANGLE_1              = 2012-08-20T12:47:00.000      45.3243387621333
    ANGLE_2              = 2012-08-20T12:47:00.000      16.8369948658708
    ANGLE_1              = 2012-08-20T12:48:00.000      45.4976797961954
    ANGLE_2              = 2012-08-20T12:48:00.000      17.0481850317776
    ANGLE_1              = 2012-08-20T12:49:00.000      45.670519127447
    ANGLE_2              = 2012-08-20T12:49:00.000      17.2614546670761
    ANGLE_1              = 2012-08-20T12:50:00.000      45.8443217124104
    ANGLE_2              = 2012-08-20T12:50:00.000      17.473359238153
    ANGLE_1              = 2012-08-20T12:51:00.000      46.0191911515526
    ANGLE_2              = 2012-08-20T12:51:00.000      17.6830590843103
    ANGLE_1              = 2012-08-20T12:52:00.000      46.1933171814361
    ANGLE_2              = 2012-08-20T12:52:00.000      17.8962011217279
    ANGLE_1              = 2012-08-20T12:53:00.000      46.3692539388938
    ANGLE_2              = 2012-08-20T12:53:00.000      18.1067932625005
    ANGLE_1              = 2012-08-20T12:54:00.000      46.5432382488266
    ANGLE_2              = 2012-08-20T12:54:00.000      18.3186208301603
    ANGLE_1              = 2012-08-20T12:55:00.000      46.7182700028438
    ANGLE_2              = 2012-08-20T12:55:00.000      18.5293119388043
    ANGLE_1              = 2012-08-20T12:56:00.000      46.8954426672651
    ANGLE_2              = 2012-08-20T12:56:00.000      18.7392202759982
    ANGLE_1              = 2012-08-20T12:57:00.000      47.0735878736755
    ANGLE_2              = 2012-08-20T12:57:00.000      18.9502348135765
    ANGLE_1              = 2012-08-20T12:58:00.000      47.2522337035431
    ANGLE_2              = 2012-08-20T12:58:00.000      19.1588786483917
    ANGLE_1              = 2012-08-20T12:59:00.000      47.429492935405
    ANGLE_2              = 2012-08-20T12:59:00.000      19.3704141486368
    ANGLE_1              = 2012-08-20T13:00:00.000      47.6091202771219
    ANGLE_2              = 2012-08-20T13:00:00.000      19.5786618089327
    ANGLE_1              = 2012-08-20T13:01:00.000      47.7883571812538
    ANGLE_2              = 2012-08-20T13:01:00.000      19.7869922256841
    ANGLE_1              = 2012-08-20T13:02:00.000      47.9697199896653
    ANGLE_2              = 2012-08-20T13:02:00.000      19.9975989469086
    ANGLE_1              = 2012-08-20T13:03:00.000      48.1501864529689
    ANGLE_2              = 2012-08-20T13:03:00.000      20.2050583470898
    ANGLE_1              = 2012-08-20T13:04:00.000      48.3324179936385
    ANGLE_2              = 2012-08-20T13:04:00.000      20.4137482375821
    ANGLE_1              = 2012-08-20T13:05:00.000      48.5144810212806
    ANGLE_2              = 2012-08-20T13:05:00.000      20.6223850747467
    ANGLE_1              = 2012-08-20T13:06:00.000      48.6941855692807
    ANGLE_2              = 2012-08-20T13:06:00.000      20.8308369946916
    ANGLE_1              = 2012-08-20T13:07:00.000      48.8765951335355
    ANGLE_2              = 2012-08-20T13:07:00.000      21.0389506614644
    ANGLE_1              = 2012-08-20T13:08:00.000      49.0583798830237
    ANGLE_2              = 2012-08-20T13:08:00.000      21.245784601326
    ANGLE_1              = 2012-08-20T13:09:00.000      49.2410138783819
    ANGLE_2              = 2012-08-20T13:09:00.000      21.4531011406107
    ANGLE_1              = 2012-08-20T13:10:00.000      49.4261358460905
    ANGLE_2              = 2012-08-20T13:10:00.000      21.6607062314882
    ANGLE_1              = 2012-08-20T13:11:00.000      49.6123776884505
    ANGLE_2              = 2012-08-20T13:11:00.000      21.8682379789084
    ANGLE_1              = 2012-08-20T13:12:00.000      49.7974990462893
    ANGLE_2              = 2012-08-20T13:12:00.000      22.0739212409002
    ANGLE_1              = 2012-08-20T13:13:00.000      49.9830425608271
    ANGLE_2              = 2012-08-20T13:13:00.000      22.2802504529304
    ANGLE_1              = 2012-08-20T13:14:00.000      50.1685360150515
    ANGLE_2              = 2012-08-20T13:14:00.000      22.4869681810652
    ANGLE_1              = 2012-08-20T13:15:00.000      50.3580776995734
    ANGLE_2              = 2012-08-20T13:15:00.000      22.6918575246109
    ANGLE_1              = 2012-08-20T13:16:00.000      50.5474071141797
    ANGLE_2              = 2012-08-20T13:16:00.000      22.8993272609852
    ANGLE_1              = 2012-08-20T13:17:00.000      50.7357818098197
    ANGLE_2              = 2012-08-20T13:17:00.000      23.1037282597998
    ANGLE_1              = 2012-08-20T13:18:00.000      50.9254318974927
    ANGLE_2              = 2012-08-20T13:18:00.000      23.3106848325195
    ANGLE_1              = 2012-08-20T13:19:00.000      51.1148448836172
    ANGLE_2              = 2012-08-20T13:19:00.000      23.5134175972704
    ANGLE_1              = 2012-08-20T13:20:00.000      51.3072703494323
    ANGLE_2              = 2012-08-20T13:20:00.000      23.717394508454
    ANGLE_1              = 2012-08-20T13:21:00.000      51.4972515155126
    ANGLE_2              = 2012-08-20T13:21:00.000      23.9210575851107
    ANGLE_1              = 2012-08-20T13:22:00.000      51.6904833462864
    ANGLE_2              = 2012-08-20T13:22:00.000      24.1222597691331
    ANGLE_1              = 2012-08-20T13:23:00.000      51.88097148563
    ANGLE_2              = 2012-08-20T13:23:00.000      24.3274663778319
    ANGLE_1              = 2012-08-20T13:24:00.000      52.0734548190234
    ANGLE_2              = 2012-08-20T13:24:00.000      24.5287200828929
    ANGLE_1              = 2012-08-20T13:25:00.000      52.2676038192215
    ANGLE_2              = 2012-08-20T13:25:00.000      24.731957892364
    ANGLE_1              = 2012-08-20T13:26:00.000      52.4600287847881
    ANGLE_2              = 2012-08-20T13:26:00.000      24.9332706855645
    ANGLE_1              = 2012-08-20T13:27:00.000      52.6577948513163
    ANGLE_2              = 2012-08-20T13:27:00.000      25.1351963104851
    ANGLE_1              = 2012-08-20T13:28:00.000      52.8535690509078
    ANGLE_2              = 2012-08-20T13:28:00.000      25.3387938294643
    ANGLE_1              = 2012-08-20T13:29:00.000      53.0486293090005
    ANGLE_2              = 2012-08-20T13:29:00.000      25.5408102645114
    ANGLE_1              = 2012-08-20T13:30:00.000      53.2455877252732
    ANGLE_2              = 2012-08-20T13:30:00.000      25.7415878166833
    ANGLE_1              = 2012-08-20T13:31:00.000      53.4447140284766
    ANGLE_2              = 2012-08-20T13:31:00.000      25.9420950731901
    ANGLE_1              = 2012-08-20T13:32:00.000      53.6428429442598
    ANGLE_2              = 2012-08-20T13:32:00.000      26.1439756063718
    ANGLE_1              = 2012-08-20T13:33:00.000      53.8421095646982
    ANGLE_2              = 2012-08-20T13:33:00.000      26.3432955058919
    ANGLE_1              = 2012-08-20T13:34:00.000      54.0414480074427
    ANGLE_2              = 2012-08-20T13:34:00.000      26.5449299188075
    ANGLE_1              = 2012-08-20T13:35:00.000      54.2422984458812
    ANGLE_2              = 2012-08-20T13:35:00.000      26.7419557095654
    ANGLE_1              = 2012-08-20T13:36:00.000      54.443929644634
    ANGLE_2              = 2012-08-20T13:36:00.000      26.9400802953009
    ANGLE_1              = 2012-08-20T13:37:00.000      54.6474357917616
    ANGLE_2              = 2012-08-20T13:37:00.000      27.1398921606566
    ANGLE_1              = 2012-08-20T13:38:00.000      54.8522846679703
    ANGLE_2              = 2012-08-20T13:38:00.000      27.3386098618056
    ANGLE_1              = 2012-08-20T13:39:00.000      55.055010087398
    ANGLE_2              = 2012-08-20T13:39:00.000      27.5370978068668
    ANGLE_1              = 2012-08-20T13:40:00.000      55.258093627357
    ANGLE_2              = 2012-08-20T13:40:00.000      27.7362330675194
    ANGLE_1              = 2012-08-20T13:41:00.000      55.4648504396793
    ANGLE_2              = 2012-08-20T13:41:00.000      27.9324132953273
    ANGLE_1              = 2012-08-20T13:42:00.000      55.6700651180642
    ANGLE_2              = 2012-08-20T13:42:00.000      28.1302491311547
    ANGLE_1              = 2012-08-20T13:43:00.000      55.876416268083
    ANGLE_2              = 2012-08-20T13:43:00.000      28.3256566420916
    ANGLE_1              = 2012-08-20T13:44:00.000      56.0849279411938
    ANGLE_2              = 2012-08-20T13:44:00.000      28.5208262830112
    ANGLE_1              = 2012-08-20T13:45:00.000      56.291540979254
    ANGLE_2              = 2012-08-20T13:45:00.000      28.7154815879446
    ANGLE_1              = 2012-08-20T13:46:00.000      56.5005477463949
    ANGLE_2              = 2012-08-20T13:46:00.000      28.9110550099
    ANGLE_1              = 2012-08-20T13:47:00.000      56.711635322596
    ANGLE_2              = 2012-08-20T13:47:00.000      29.1051701870686
    ANGLE_1              = 2012-08-20T13:48:00.000      56.9220531686654
    ANGLE_2              = 2012-08-20T13:48:00.000      29.2992896323661
    ANGLE_1              = 2012-08-20T13:49:00.000      57.1337714972608
    ANGLE_2              = 2012-08-20T13:49:00.000      29.494381513625
    ANGLE_1              = 2012-08-20T13:50:00.000      57.347467318317
    ANGLE_2              = 2012-08-20T13:50:00.000      29.6875461917967
    ANGLE_1              = 2012-08-20T13:51:00.000      57.5606282319952
    ANGLE_2              = 2012-08-20T13:51:00.000      29.8799324600451
    ANGLE_1              = 2012-08-20T13:52:00.000      57.7729520293958
    ANGLE_2              = 2012-08-20T13:52:00.000      30.0737628953739
    ANGLE_1              = 2012-08-20T13:53:00.000      57.9892958334012
    ANGLE_2              = 2012-08-20T13:53:00.000      30.2648899111359
    ANGLE_1              = 2012-08-20T13:54:00.000      58.2051723252901
    ANGLE_2              = 2012-08-20T13:54:00.000      30.4571919651209
    ANGLE_1              = 2012-08-20T13:55:00.000      58.4223648770165
    ANGLE_2              = 2012-08-20T13:55:00.000      30.6496668663758
    ANGLE_1              = 2012-08-20T13:56:00.000      58.6393315834668
    ANGLE_2              = 2012-08-20T13:56:00.000      30.841054555685
    ANGLE_1              = 2012-08-20T13:57:00.000      58.8596665861315
    ANGLE_2              = 2012-08-20T13:57:00.000      31.0322028387815
    ANGLE_1              = 2012-08-20T13:58:00.000      59.0781385006171
    ANGLE_2              = 2012-08-20T13:58:00.000      31.2237801615365
    ANGLE_1              = 2012-08-20T13:59:00.000      59.2994491065847
    ANGLE_2              = 2012-08-20T13:59:00.000      31.4132642657134
    ANGLE_1              = 2012-08-20T14:00:00.000      59.520500697956
    ANGLE_2              = 2012-08-20T14:00:00.000      31.6031102553663
    ANGLE_1              = 2012-08-20T14:01:00.000      59.7428358349552
    ANGLE_2              = 2012-08-20T14:01:00.000      31.7915546494975
    ANGLE_1              = 2012-08-20T14:02:00.000      59.9670502902229
    ANGLE_2              = 2012-08-20T14:02:00.000      31.9800646004258
    ANGLE_1              = 2012-08-20T14:03:00.000      60.191828963665
    ANGLE_2              = 2012-08-20T14:03:00.000      32.1663122295309
    ANGLE_1              = 2012-08-20T14:04:00.000      60.4195317821828
    ANGLE_2              = 2012-08-20T14:04:00.000      32.3537051335221
    ANGLE_1              = 2012-08-20T14:05:00.000      60.6453506421299
    ANGLE_2              = 2012-08-20T14:05:00.000      32.5408606457176
    ANGLE_1              = 2012-08-20T14:06:00.000      60.8722859025429
    ANGLE_2              = 2012-08-20T14:06:00.000      32.726054303438
    ANGLE_1              = 2012-08-20T14:07:00.000      61.1020857882939
    ANGLE_2              = 2012-08-20T14:07:00.000      32.9115669454887
    ANGLE_1              = 2012-08-20T14:08:00.000      61.3308478349519
    ANGLE_2              = 2012-08-20T14:08:00.000      33.0967426948774
    ANGLE_1              = 2012-08-20T14:09:00.000      61.561508990813
    ANGLE_2              = 2012-08-20T14:09:00.000      33.2809632040688
    ANGLE_1              = 2012-08-20T14:10:00.000      61.7951464629592
    ANGLE_2              = 2012-08-20T14:10:00.000      33.4676184715258
    ANGLE_1              = 2012-08-20T14:11:00.000      62.0276652330322
    ANGLE_2              = 2012-08-20T14:11:00.000      33.6505169561513
    ANGLE_1              = 2012-08-20T14:12:00.000      62.2577592506792
    ANGLE_2              = 2012-08-20T14:12:00.000      33.8324715772522
    ANGLE_1              = 2012-08-20T14:13:00.000      62.4946378792509
    ANGLE_2              = 2012-08-20T14:13:00.000      34.0139035420956
    ANGLE_1              = 2012-08-20T14:14:00.000      62.7313173114098
    ANGLE_2              = 2012-08-20T14:14:00.000      34.196729231271
    ANGLE_1              = 2012-08-20T14:15:00.000      62.9652920851726
    ANGLE_2              = 2012-08-20T14:15:00.000      34.3777619029073
    ANGLE_1              = 2012-08-20T14:16:00.000      63.2044244185221
    ANGLE_2              = 2012-08-20T14:16:00.000      34.558865764604
    ANGLE_1              = 2012-08-20T14:17:00.000      63.4415130733481
    ANGLE_2              = 2012-08-20T14:17:00.000      34.7381772223071
    ANGLE_1              = 2012-08-20T14:18:00.000      63.6825201524366
    ANGLE_2              = 2012-08-20T14:18:00.000      34.9180409427277
    ANGLE_1              = 2012-08-20T14:19:00.000      63.9246705813
    ANGLE_2              = 2012-08-20T14:19:00.000      35.0963947331565
    ANGLE_1              = 2012-08-20T14:20:00.000      64.1683134917784
    ANGLE_2              = 2012-08-20T14:20:00.000      35.2753850054898
    ANGLE_1              = 2012-08-20T14:21:00.000      64.412772300396
    ANGLE_2              = 2012-08-20T14:21:00.000      35.4545562466465
    ANGLE_1              = 2012-08-20T14:22:00.000      64.6557933686954
    ANGLE_2              = 2012-08-20T14:22:00.000      35.6313873829895
    ANGLE_1              = 2012-08-20T14:23:00.000      64.900149048191
    ANGLE_2              = 2012-08-20T14:23:00.000      35.8108407911476
    ANGLE_1              = 2012-08-20T14:24:00.000      65.1455719680609
    ANGLE_2              = 2012-08-20T14:24:00.000      35.9875283433011
    ANGLE_1              = 2012-08-20T14:25:00.000      65.3935862394859
    ANGLE_2              = 2012-08-20T14:25:00.000      36.1637308770751
    ANGLE_1              = 2012-08-20T14:26:00.000      65.6418787522232
    ANGLE_2              = 2012-08-20T14:26:00.000      36.3387244604054
    ANGLE_1              = 2012-08-20T14:27:00.000      65.8901993361391
    ANGLE_2              = 2012-08-20T14:27:00.000      36.5137879920967
    ANGLE_1              = 2012-08-20T14:28:00.000      66.1400723567848
    ANGLE_2              = 2012-08-20T14:28:00.000      36.6865068832415
    ANGLE_1              = 2012-08-20T14:29:00.000      66.3917746874936
    ANGLE_2              = 2012-08-20T14:29:00.000      36.8606393609513
    ANGLE_1              = 2012-08-20T14:30:00.000      66.6434435155937
    ANGLE_2              = 2012-08-20T14:30:00.000      37.0328977693185
    ANGLE_1              = 2012-08-20T14:31:00.000      66.8968652716354
    ANGLE_2              = 2012-08-20T14:31:00.000      37.2066805264578
    ANGLE_1              = 2012-08-20T14:32:00.000      67.1521640536494
    ANGLE_2              = 2012-08-20T14:32:00.000      37.379127915739
    ANGLE_1              = 2012-08-20T14:33:00.000      67.4079962992316
    ANGLE_2              = 2012-08-20T14:33:00.000      37.5490651868702
    ANGLE_1              = 2012-08-20T14:34:00.000      67.6691369213075
    ANGLE_2              = 2012-08-20T14:34:00.000      37.7193838120454
    ANGLE_1              = 2012-08-20T14:35:00.000      67.9266600291761
    ANGLE_2              = 2012-08-20T14:35:00.000      37.8901231190111
    ANGLE_1              = 2012-08-20T14:36:00.000      68.1851033478281
    ANGLE_2              = 2012-08-20T14:36:00.000      38.0580380669489
    ANGLE_1              = 2012-08-20T14:37:00.000      68.4464836292916
    ANGLE_2              = 2012-08-20T14:37:00.000      38.2271332029787
    ANGLE_1              = 2012-08-20T14:38:00.000      68.7079459166778
    ANGLE_2              = 2012-08-20T14:38:00.000      38.3937911878848
    ANGLE_1              = 2012-08-20T14:39:00.000      68.9716166875949
    ANGLE_2              = 2012-08-20T14:39:00.000      38.5599631446392
    ANGLE_1              = 2012-08-20T14:40:00.000      69.2362196569107
    ANGLE_2              = 2012-08-20T14:40:00.000      38.7255710080375
    ANGLE_1              = 2012-08-20T14:41:00.000      69.503368760138
    ANGLE_2              = 2012-08-20T14:41:00.000      38.8913105331255
    ANGLE_1              = 2012-08-20T14:42:00.000      69.7717847592982
    ANGLE_2              = 2012-08-20T14:42:00.000      39.0560100110522
    ANGLE_1              = 2012-08-20T14:43:00.000      70.0407945510828
    ANGLE_2              = 2012-08-20T14:43:00.000      39.2198104939121
    ANGLE_1              = 2012-08-20T14:44:00.000      70.3114314293951
    ANGLE_2              = 2012-08-20T14:44:00.000      39.3830685848756
    ANGLE_1              = 2012-08-20T14:45:00.000      70.5809269346914
    ANGLE_2              = 2012-08-20T14:45:00.000      39.5469171278569
    ANGLE_1              = 2012-08-20T14:46:00.000      70.8552877182469
    ANGLE_2              = 2012-08-20T14:46:00.000      39.7103883517161
    ANGLE_1              = 2012-08-20T14:47:00.000      71.1298720180171
    ANGLE_2              = 2012-08-20T14:47:00.000      39.8723350058522
    ANGLE_1              = 2012-08-20T14:48:00.000      71.40615854377
    ANGLE_2              = 2012-08-20T14:48:00.000      40.0350552420818
    ANGLE_1              = 2012-08-20T14:49:00.000      71.6834074703772
    ANGLE_2              = 2012-08-20T14:49:00.000      40.1941208943972
    ANGLE_1              = 2012-08-20T14:50:00.000      71.959068400855
    ANGLE_2              = 2012-08-20T14:50:00.000      40.3534115809437
    ANGLE_1              = 2012-08-20T14:51:00.000      72.2380599640844
    ANGLE_2              = 2012-08-20T14:51:00.000      40.5122698577059
    ANGLE_1              = 2012-08-20T14:52:00.000      72.5193717841313
    ANGLE_2              = 2012-08-20T14:52:00.000      40.6714746938675
    ANGLE_1              = 2012-08-20T14:53:00.000      72.7989182666234
    ANGLE_2              = 2012-08-20T14:53:00.000      40.8286252930543
    ANGLE_1              = 2012-08-20T14:54:00.000      73.0813433560712
    ANGLE_2              = 2012-08-20T14:54:00.000      40.9857299061433
    ANGLE_1              = 2012-08-20T14:55:00.000      73.3656017207687
    ANGLE_2              = 2012-08-20T14:55:00.000      41.1422779545816
    ANGLE_1              = 2012-08-20T14:56:00.000      73.6535315391324
    ANGLE_2              = 2012-08-20T14:56:00.000      41.2969851883312
    ANGLE_1              = 2012-08-20T14:57:00.000      73.9391611087894
    ANGLE_2              = 2012-08-20T14:57:00.000      41.4485534564015
    ANGLE_1              = 2012-08-20T14:58:00.000      74.2283682574986
    ANGLE_2              = 2012-08-20T14:58:00.000      41.6003540114286
    ANGLE_1              = 2012-08-20T14:59:00.000      74.5195737114714
    ANGLE_2              = 2012-08-20T14:59:00.000      41.7533403031716
    ANGLE_1              = 2012-08-20T15:00:00.000      74.8107368419638
    ANGLE_2              = 2012-08-20T15:00:00.000      41.9046910136658
    ANGLE_1              = 2012-08-20T15:01:00.000      75.1048098047593
    ANGLE_2              = 2012-08-20T15:01:00.000      42.0553207050599
    ANGLE_1              = 2012-08-20T15:02:00.000      75.3992087752655
    ANGLE_2              = 2012-08-20T15:02:00.000      42.2043777689466
    ANGLE_1              = 2012-08-20T15:03:00.000      75.6911529445352
    ANGLE_2              = 2012-08-20T15:03:00.000      42.355132173963
    ANGLE_1              = 2012-08-20T15:04:00.000      75.991220328079
    ANGLE_2              = 2012-08-20T15:04:00.000      42.5008824592803
    ANGLE_1              = 2012-08-20T15:05:00.000      76.2888527977062
    ANGLE_2              = 2012-08-20T15:05:00.000      42.647905371432
    ANGLE_1              = 2012-08-20T15:06:00.000      76.5884669777027
    ANGLE_2              = 2012-08-20T15:06:00.000      42.7933665548855
    ANGLE_1              = 2012-08-20T15:07:00.000      76.8896878110444
    ANGLE_2              = 2012-08-20T15:07:00.000      42.9405029025899
    ANGLE_1              = 2012-08-20T15:08:00.000      77.1896944158833
    ANGLE_2              = 2012-08-20T15:08:00.000      43.0845466449106
    ANGLE_1              = 2012-08-20T15:09:00.000      77.4936239298084
    ANGLE_2              = 2012-08-20T15:09:00.000      43.2283991184441
    ANGLE_1              = 2012-08-20T15:10:00.000      77.8011229780019
    ANGLE_2              = 2012-08-20T15:10:00.000      43.3716645749779
    ANGLE_1              = 2012-08-20T15:11:00.000      78.1055377454006
    ANGLE_2              = 2012-08-20T15:11:00.000      43.5126721835537
    ANGLE_1              = 2012-08-20T15:12:00.000      78.4164013238034
    ANGLE_2              = 2012-08-20T15:12:00.000      43.6524457418654
    ANGLE_1              = 2012-08-20T15:13:00.000      78.7260322683474
    ANGLE_2              = 2012-08-20T15:13:00.000      43.7913138858122
    ANGLE_1              = 2012-08-20T15:14:00.000      79.0373337420693
    ANGLE_2              = 2012-08-20T15:14:00.000      43.9298072291946
    ANGLE_1              = 2012-08-20T15:15:00.000      79.3506509115602
    ANGLE_2              = 2012-08-20T15:15:00.000      44.0683924131391
    ANGLE_1              = 2012-08-20T15:16:00.000      79.6635422250875
    ANGLE_2              = 2012-08-20T15:16:00.000      44.2049550708936
    ANGLE_1              = 2012-08-20T15:17:00.000      79.9779021085548
    ANGLE_2              = 2012-08-20T15:17:00.000      44.3417254540591
    ANGLE_1              = 2012-08-20T15:18:00.000      80.2976180975524
    ANGLE_2              = 2012-08-20T15:18:00.000      44.4777423365175
    ANGLE_1              = 2012-08-20T15:19:00.000      80.6161648358918
    ANGLE_2              = 2012-08-20T15:19:00.000      44.6115883800206
    ANGLE_1              = 2012-08-20T15:20:00.000      80.9354641512632
    ANGLE_2              = 2012-08-20T15:20:00.000      44.7438606137277
    ANGLE_1              = 2012-08-20T15:21:00.000      81.2588090190724
    ANGLE_2              = 2012-08-20T15:21:00.000      44.8763765680801
    ANGLE_1              = 2012-08-20T15:22:00.000      81.5788822387078
    ANGLE_2              = 2012-08-20T15:22:00.000      45.008490807679
    ANGLE_1              = 2012-08-20T15:23:00.000      81.9028259678176
    ANGLE_2              = 2012-08-20T15:23:00.000      45.1372506725736
    ANGLE_1              = 2012-08-20T15:24:00.000      82.2305508950149
    ANGLE_2              = 2012-08-20T15:24:00.000      45.2663908653531
    ANGLE_1              = 2012-08-20T15:25:00.000      82.5568822936399
    ANGLE_2              = 2012-08-20T15:25:00.000      45.3946615700058
    ANGLE_1              = 2012-08-20T15:26:00.000      82.8865912421277
    ANGLE_2              = 2012-08-20T15:26:00.000      45.519565812566
    ANGLE_1              = 2012-08-20T15:27:00.000      83.2160295471809
    ANGLE_2              = 2012-08-20T15:27:00.000      45.6474520057261
    ANGLE_1              = 2012-08-20T15:28:00.000      83.5487586109663
    ANGLE_2              = 2012-08-20T15:28:00.000      45.7729454942952
    ANGLE_1              = 2012-08-20T15:29:00.000      83.8814427982285
    ANGLE_2              = 2012-08-20T15:29:00.000      45.8961603498066
    ANGLE_1              = 2012-08-20T15:30:00.000      84.216805642705
    ANGLE_2              = 2012-08-20T15:30:00.000      46.0191618346975
    ANGLE_1              = 2012-08-20T15:31:00.000      84.5532344454465
    ANGLE_2              = 2012-08-20T15:31:00.000      46.1401908659945
    ANGLE_1              = 2012-08-20T15:32:00.000      84.889275911892
    ANGLE_2              = 2012-08-20T15:32:00.000      46.260724673057
    ANGLE_1              = 2012-08-20T15:33:00.000      85.2287934013935
    ANGLE_2              = 2012-08-20T15:33:00.000      46.3788966255724
    ANGLE_1              = 2012-08-20T15:34:00.000      85.5685493444948
    ANGLE_2              = 2012-08-20T15:34:00.000      46.4988455457264
    ANGLE_1              = 2012-08-20T15:35:00.000      85.9105783399148
    ANGLE_2              = 2012-08-20T15:35:00.000      46.61669548688
    ANGLE_1              = 2012-08-20T15:36:00.000      86.2534713153459
    ANGLE_2              = 2012-08-20T15:36:00.000      46.7336551420379
    ANGLE_1              = 2012-08-20T15:37:00.000      86.5982721160494
    ANGLE_2              = 2012-08-20T15:37:00.000      46.8487219580014
    ANGLE_1              = 2012-08-20T15:38:00.000      86.9444184951301
    ANGLE_2              = 2012-08-20T15:38:00.000      46.9631057224683
    ANGLE_1              = 2012-08-20T15:39:00.000      87.2914566577762
    ANGLE_2              = 2012-08-20T15:39:00.000      47.0751599206586
    ANGLE_1              = 2012-08-20T15:40:00.000      87.6428630508968
    ANGLE_2              = 2012-08-20T15:40:00.000      47.1881951239423
    ANGLE_1              = 2012-08-20T15:41:00.000      87.9914130441742
    ANGLE_2              = 2012-08-20T15:41:00.000      47.2971012560364
    ANGLE_1              = 2012-08-20T15:42:00.000      88.3476093034862
    ANGLE_2              = 2012-08-20T15:42:00.000      47.4057750107579
    ANGLE_1              = 2012-08-20T15:43:00.000      88.7004986645872
    ANGLE_2              = 2012-08-20T15:43:00.000      47.5140200565521
    ANGLE_1              = 2012-08-20T15:44:00.000      89.0534183829331
    ANGLE_2              = 2012-08-20T15:44:00.000      47.6206713362343
    ANGLE_1              = 2012-08-20T15:45:00.000      89.4102807569499
    ANGLE_2              = 2012-08-20T15:45:00.000      47.7271323670492
    ANGLE_1              = 2012-08-20T15:46:00.000      89.7677658584541
    ANGLE_2              = 2012-08-20T15:46:00.000      47.8325550678876
    ANGLE_1              = 2012-08-20T15:47:00.000      90.1275761354041
    ANGLE_2              = 2012-08-20T15:47:00.000      47.9357963501759
    ANGLE_1              = 2012-08-20T15:48:00.000      90.4879110910769
    ANGLE_2              = 2012-08-20T15:48:00.000      48.0392322683209
    ANGLE_1              = 2012-08-20T15:49:00.000      90.8500340577016
    ANGLE_2              = 2012-08-20T15:49:00.000      48.1379922764628
    ANGLE_1              = 2012-08-20T15:50:00.000      91.2147110859241
    ANGLE_2              = 2012-08-20T15:50:00.000      48.2386722368979
    ANGLE_1              = 2012-08-20T15:51:00.000      91.5769935060147
    ANGLE_2              = 2012-08-20T15:51:00.000      48.3367298243022
    ANGLE_1              = 2012-08-20T15:52:00.000      91.9443090739622
    ANGLE_2              = 2012-08-20T15:52:00.000      48.4356414507012
    ANGLE_1              = 2012-08-20T15:53:00.000      92.3134718282869
    ANGLE_2              = 2012-08-20T15:53:00.000      48.5301286091872
    ANGLE_1              = 2012-08-20T15:54:00.000      92.6820342633931
    ANGLE_2              = 2012-08-20T15:54:00.000      48.6259274317517
    ANGLE_1              = 2012-08-20T15:55:00.000      93.0519845492483
    ANGLE_2              = 2012-08-20T15:55:00.000      48.7187852787886
    ANGLE_1              = 2012-08-20T15:56:00.000      93.4242130970523
    ANGLE_2              = 2012-08-20T15:56:00.000      48.8106008161437
    ANGLE_1              = 2012-08-20T15:57:00.000      93.7952582484307
    ANGLE_2              = 2012-08-20T15:57:00.000      48.904181793025
    ANGLE_1              = 2012-08-20T15:58:00.000      94.172029027942
    ANGLE_2              = 2012-08-20T15:58:00.000      48.9929001770978
    ANGLE_1              = 2012-08-20T15:59:00.000      94.5478830692951
    ANGLE_2              = 2012-08-20T15:59:00.000      49.0826456860521
    ANGLE_1              = 2012-08-20T16:00:00.000      94.9246506287471
    ANGLE_2              = 2012-08-20T16:00:00.000      49.1700103357843
    ANGLE_1              = 2012-08-20T16:01:00.000      95.3039503310205
    ANGLE_2              = 2012-08-20T16:01:00.000      49.2566153879585
    ANGLE_1              = 2012-08-20T16:02:00.000      95.6819083522907
    ANGLE_2              = 2012-08-20T16:02:00.000      49.3403772396254
    ANGLE_1              = 2012-08-20T16:03:00.000      96.0623862793109
    ANGLE_2              = 2012-08-20T16:03:00.000      49.4255910947017
    ANGLE_1              = 2012-08-20T16:04:00.000      96.4465225849216
    ANGLE_2              = 2012-08-20T16:04:00.000      49.5056571467933
    ANGLE_1              = 2012-08-20T16:05:00.000      96.8295500166493
    ANGLE_2              = 2012-08-20T16:05:00.000      49.5868541066774
    ANGLE_1              = 2012-08-20T16:06:00.000      97.2155187600003
    ANGLE_2              = 2012-08-20T16:06:00.000      49.6659944499783
    ANGLE_1              = 2012-08-20T16:07:00.000      97.5979405238063
    ANGLE_2              = 2012-08-20T16:07:00.000      49.7466740335446
    ANGLE_1              = 2012-08-20T16:08:00.000      97.9860533692245
    ANGLE_2              = 2012-08-20T16:08:00.000      49.824566226468
    ANGLE_1              = 2012-08-20T16:09:00.000      98.3742609820902
    ANGLE_2              = 2012-08-20T16:09:00.000      49.8971242371363
    ANGLE_1              = 2012-08-20T16:10:00.000      98.762179262834
    ANGLE_2              = 2012-08-20T16:10:00.000      49.9699558161937
    ANGLE_1              = 2012-08-20T16:11:00.000      99.1538202462835
    ANGLE_2              = 2012-08-20T16:11:00.000      50.0428711444316
    ANGLE_1              = 2012-08-20T16:12:00.000      99.5454443428256
    ANGLE_2              = 2012-08-20T16:12:00.000      50.1129754585802
    ANGLE_1              = 2012-08-20T16:13:00.000      99.938346040791
    ANGLE_2              = 2012-08-20T16:13:00.000      50.182452708166
    ANGLE_1              = 2012-08-20T16:14:00.000      100.329514857945
    ANGLE_2              = 2012-08-20T16:14:00.000      50.2490762230293
    ANGLE_1              = 2012-08-20T16:15:00.000      100.725819571954
    ANGLE_2              = 2012-08-20T16:15:00.000      50.3169277373178
    ANGLE_1              = 2012-08-20T16:16:00.000      101.12019735517
    ANGLE_2              = 2012-08-20T16:16:00.000      50.3819639264751
    ANGLE_1              = 2012-08-20T16:17:00.000      101.520077807944
    ANGLE_2              = 2012-08-20T16:17:00.000      50.4472313627734
    ANGLE_1              = 2012-08-20T16:18:00.000      101.917875074536
    ANGLE_2              = 2012-08-20T16:18:00.000      50.5082582842661
    ANGLE_1              = 2012-08-20T16:19:00.000      102.317172867667
    ANGLE_2              = 2012-08-20T16:19:00.000      50.5695889294314
    ANGLE_1              = 2012-08-20T16:20:00.000      102.71852762815
    ANGLE_2              = 2012-08-20T16:20:00.000      50.6301559182508
    ANGLE_1              = 2012-08-20T16:21:00.000      103.118961801719
    ANGLE_2              = 2012-08-20T16:21:00.000      50.6857548885677
    ANGLE_1              = 2012-08-20T16:22:00.000      103.520664224018
    ANGLE_2              = 2012-08-20T16:22:00.000      50.7426375237276
    ANGLE_1              = 2012-08-20T16:23:00.000      103.924022012341
    ANGLE_2              = 2012-08-20T16:23:00.000      50.7992993968681
    ANGLE_1              = 2012-08-20T16:24:00.000      104.327495087982
    ANGLE_2              = 2012-08-20T16:24:00.000      50.8516740992423
    ANGLE_1              = 2012-08-20T16:25:00.000      104.732823766102
    ANGLE_2              = 2012-08-20T16:25:00.000      50.9043274953061
    ANGLE_1              = 2012-08-20T16:26:00.000      105.140428175453
    ANGLE_2              = 2012-08-20T16:26:00.000      50.9552063477464
    ANGLE_1              = 2012-08-20T16:27:00.000      105.545319462326
    ANGLE_2              = 2012-08-20T16:27:00.000      51.0046558879115
    ANGLE_1              = 2012-08-20T16:28:00.000      105.953086864271
    ANGLE_2              = 2012-08-20T16:28:00.000      51.0517670545664
    ANGLE_1              = 2012-08-20T16:29:00.000      106.363901459371
    ANGLE_2              = 2012-08-20T16:29:00.000      51.0991192347946
    ANGLE_1              = 2012-08-20T16:30:00.000      106.772579061901
    ANGLE_2              = 2012-08-20T16:30:00.000      51.1422708867709
    ANGLE_1              = 2012-08-20T16:31:00.000      107.184578324642
    ANGLE_2              = 2012-08-20T16:31:00.000      51.1857855904447
    ANGLE_1              = 2012-08-20T16:32:00.000      107.594897206828
    ANGLE_2              = 2012-08-20T16:32:00.000      51.2299471267182
    ANGLE_1              = 2012-08-20T16:33:00.000      108.006486479624
    ANGLE_2              = 2012-08-20T16:33:00.000      51.269297162821
    ANGLE_1              = 2012-08-20T16:34:00.000      108.417970896538
    ANGLE_2              = 2012-08-20T16:34:00.000      51.3076443154267
    ANGLE_1              = 2012-08-20T16:35:00.000      108.831780879436
    ANGLE_2              = 2012-08-20T16:35:00.000      51.3441634553124
    ANGLE_1              = 2012-08-20T16:36:00.000      109.24488705347
    ANGLE_2              = 2012-08-20T16:36:00.000      51.380344686987
    ANGLE_1              = 2012-08-20T16:37:00.000      109.662107948616
    ANGLE_2              = 2012-08-20T16:37:00.000      51.4140290538212
    ANGLE_1              = 2012-08-20T16:38:00.000      110.076613917562
    ANGLE_2              = 2012-08-20T16:38:00.000      51.4461905420538
    ANGLE_1              = 2012-08-20T16:39:00.000      110.491902012618
    ANGLE_2              = 2012-08-20T16:39:00.000      51.4773566547131
    ANGLE_1              = 2012-08-20T16:40:00.000      110.907386955792
    ANGLE_2              = 2012-08-20T16:40:00.000      51.5070331333456
    ANGLE_1              = 2012-08-20T16:41:00.000      111.323748877759
    ANGLE_2              = 2012-08-20T16:41:00.000      51.5350240236243
    ANGLE_1              = 2012-08-20T16:42:00.000      111.739061599418
    ANGLE_2              = 2012-08-20T16:42:00.000      51.5631034125386
    ANGLE_1              = 2012-08-20T16:43:00.000      112.158102789681
    ANGLE_2              = 2012-08-20T16:43:00.000      51.5871803429903
    ANGLE_1              = 2012-08-20T16:44:00.000      112.576439387043
    ANGLE_2              = 2012-08-20T16:44:00.000      51.6107935568654
    ANGLE_1              = 2012-08-20T16:45:00.000      112.994944774109
    ANGLE_2              = 2012-08-20T16:45:00.000      51.6315123278111
    ANGLE_1              = 2012-08-20T16:46:00.000      113.415730746869
    ANGLE_2              = 2012-08-20T16:46:00.000      51.6522566216591
    ANGLE_1              = 2012-08-20T16:47:00.000      113.832475129379
    ANGLE_2              = 2012-08-20T16:47:00.000      51.6715092182501
    ANGLE_1              = 2012-08-20T16:48:00.000      114.253816780622
    ANGLE_2              = 2012-08-20T16:48:00.000      51.6884123773838
    ANGLE_1              = 2012-08-20T16:49:00.000      114.671307650776
    ANGLE_2              = 2012-08-20T16:49:00.000      51.7037163287091
    ANGLE_1              = 2012-08-20T16:50:00.000      115.092544071521
    ANGLE_2              = 2012-08-20T16:50:00.000      51.7185159618462
    ANGLE_1              = 2012-08-20T16:51:00.000      115.511583464916
    ANGLE_2              = 2012-08-20T16:51:00.000      51.7308074943164
    ANGLE_1              = 2012-08-20T16:52:00.000      115.931606860772
    ANGLE_2              = 2012-08-20T16:52:00.000      51.7416785828937
    ANGLE_1              = 2012-08-20T16:53:00.000      116.35280366346
    ANGLE_2              = 2012-08-20T16:53:00.000      51.7503808588516
    ANGLE_1              = 2012-08-20T16:54:00.000      116.771253287869
    ANGLE_2              = 2012-08-20T16:54:00.000      51.7590346185377
    ANGLE_1              = 2012-08-20T16:55:00.000      117.192390345727
    ANGLE_2              = 2012-08-20T16:55:00.000      51.7635554359655
    ANGLE_1              = 2012-08-20T16:56:00.000      117.611745933657
    ANGLE_2              = 2012-08-20T16:56:00.000      51.7689002951821
    ANGLE_1              = 2012-08-20T16:57:00.000      118.033047833341
    ANGLE_2              = 2012-08-20T16:57:00.000      51.7712089808094
    ANGLE_1              = 2012-08-20T16:58:00.000      118.453633610645
    ANGLE_2              = 2012-08-20T16:58:00.000      51.7713122967655
    ANGLE_1              = 2012-08-20T16:59:00.000      118.871910709571
    ANGLE_2              = 2012-08-20T16:59:00.000      51.7717680386393
    ANGLE_1              = 2012-08-20T17:00:00.000      119.294017601825
    ANGLE_2              = 2012-08-20T17:00:00.000      51.7711360636427
    ANGLE_1              = 2012-08-20T17:01:00.000      119.714323119651
    ANGLE_2              = 2012-08-20T17:01:00.000      51.7662422367646
    ANGLE_1              = 2012-08-20T17:02:00.000      120.135122494128
    ANGLE_2              = 2012-08-20T17:02:00.000      51.7589258049571
    ANGLE_1              = 2012-08-20T17:03:00.000      120.555109654801
    ANGLE_2              = 2012-08-20T17:03:00.000      51.7528939930747
    ANGLE_1              = 2012-08-20T17:04:00.000      120.973869905803
    ANGLE_2              = 2012-08-20T17:04:00.000      51.7459202181537
    ANGLE_1              = 2012-08-20T17:05:00.000      121.393717312504
    ANGLE_2              = 2012-08-20T17:05:00.000      51.7382574071893
    ANGLE_1              = 2012-08-20T17:06:00.000      121.812271972186
    ANGLE_2              = 2012-08-20T17:06:00.000      51.7267869074525
    ANGLE_1              = 2012-08-20T17:07:00.000      122.235143402431
    ANGLE_2              = 2012-08-20T17:07:00.000      51.7133764753683
    ANGLE_1              = 2012-08-20T17:08:00.000      122.654730689081
    ANGLE_2              = 2012-08-20T17:08:00.000      51.6984460395786
    ANGLE_1              = 2012-08-20T17:09:00.000      123.071296906342
    ANGLE_2              = 2012-08-20T17:09:00.000      51.6822735643181
    ANGLE_1              = 2012-08-20T17:10:00.000      123.488359896342
    ANGLE_2              = 2012-08-20T17:10:00.000      51.6640140372294
    ANGLE_1              = 2012-08-20T17:11:00.000      123.907395113825
    ANGLE_2              = 2012-08-20T17:11:00.000      51.64431502856
    ANGLE_1              = 2012-08-20T17:12:00.000      124.326690487917
    ANGLE_2              = 2012-08-20T17:12:00.000      51.6245717041434
    ANGLE_1              = 2012-08-20T17:13:00.000      124.745639398616
    ANGLE_2              = 2012-08-20T17:13:00.000      51.6016695061546
    ANGLE_1              = 2012-08-20T17:14:00.000      125.161828883542
    ANGLE_2              = 2012-08-20T17:14:00.000      51.5785024980635
    ANGLE_1              = 2012-08-20T17:15:00.000      125.578713963791
    ANGLE_2              = 2012-08-20T17:15:00.000      51.5522969455738
    ANGLE_1              = 2012-08-20T17:16:00.000      125.994980956703
    ANGLE_2              = 2012-08-20T17:16:00.000      51.5260086358107
    ANGLE_1              = 2012-08-20T17:17:00.000      126.409305963062
    ANGLE_2              = 2012-08-20T17:17:00.000      51.4973475655712
    ANGLE_1              = 2012-08-20T17:18:00.000      126.824852789715
    ANGLE_2              = 2012-08-20T17:18:00.000      51.4658143092124
    ANGLE_1              = 2012-08-20T17:19:00.000      127.240262603454
    ANGLE_2              = 2012-08-20T17:19:00.000      51.4340933477209
    ANGLE_1              = 2012-08-20T17:20:00.000      127.65605163789
    ANGLE_2              = 2012-08-20T17:20:00.000      51.4024716605018
    ANGLE_1              = 2012-08-20T17:21:00.000      128.069265412565
    ANGLE_2              = 2012-08-20T17:21:00.000      51.3686286526974
    ANGLE_1              = 2012-08-20T17:22:00.000      128.482433185152
    ANGLE_2              = 2012-08-20T17:22:00.000      51.3331146407933
    ANGLE_1              = 2012-08-20T17:23:00.000      128.894721053702
    ANGLE_2              = 2012-08-20T17:23:00.000      51.2955878325842
    ANGLE_1              = 2012-08-20T17:24:00.000      129.304994218873
    ANGLE_2              = 2012-08-20T17:24:00.000      51.2575771917286
    ANGLE_1              = 2012-08-20T17:25:00.000      129.716386524208
    ANGLE_2              = 2012-08-20T17:25:00.000      51.214732945373
    ANGLE_1              = 2012-08-20T17:26:00.000      130.125861127979
    ANGLE_2              = 2012-08-20T17:26:00.000      51.1724943377056
    ANGLE_1              = 2012-08-20T17:27:00.000      130.533601796004
    ANGLE_2              = 2012-08-20T17:27:00.000      51.1291110260502
    ANGLE_1              = 2012-08-20T17:28:00.000      130.941445689072
    ANGLE_2              = 2012-08-20T17:28:00.000      51.0847714916596
    ANGLE_1              = 2012-08-20T17:29:00.000      131.350102485237
    ANGLE_2              = 2012-08-20T17:29:00.000      51.0374880658122
    ANGLE_1              = 2012-08-20T17:30:00.000      131.755631127599
    ANGLE_2              = 2012-08-20T17:30:00.000      50.9886714525406
    ANGLE_1              = 2012-08-20T17:31:00.000      132.161508103579
    ANGLE_2              = 2012-08-20T17:31:00.000      50.9376625841667
    ANGLE_1              = 2012-08-20T17:32:00.000      132.566701446137
    ANGLE_2              = 2012-08-20T17:32:00.000      50.8864872403785
    ANGLE_1              = 2012-08-20T17:33:00.000      132.973204361183
    ANGLE_2              = 2012-08-20T17:33:00.000      50.8346628604152
    ANGLE_1              = 2012-08-20T17:34:00.000      133.37764218872
    ANGLE_2              = 2012-08-20T17:34:00.000      50.7802802304951
    ANGLE_1              = 2012-08-20T17:35:00.000      133.776996031984
    ANGLE_2              = 2012-08-20T17:35:00.000      50.7232842289993
    ANGLE_1              = 2012-08-20T17:36:00.000      134.179385195756
    ANGLE_2              = 2012-08-20T17:36:00.000      50.6674366156223
    ANGLE_1              = 2012-08-20T17:37:00.000      134.579219897187
    ANGLE_2              = 2012-08-20T17:37:00.000      50.6077566581509
    ANGLE_1              = 2012-08-20T17:38:00.000      134.979781900102
    ANGLE_2              = 2012-08-20T17:38:00.000      50.5457774957653
    ANGLE_1              = 2012-08-20T17:39:00.000      135.376299114097
    ANGLE_2              = 2012-08-20T17:39:00.000      50.4828058920933
    ANGLE_1              = 2012-08-20T17:40:00.000      135.775185303956
    ANGLE_2              = 2012-08-20T17:40:00.000      50.4193589319768
    ANGLE_1              = 2012-08-20T17:41:00.000      136.169845800831
    ANGLE_2              = 2012-08-20T17:41:00.000      50.3535583367921
    ANGLE_1              = 2012-08-20T17:42:00.000      136.563633365955
    ANGLE_2              = 2012-08-20T17:42:00.000      50.2890685945608
    ANGLE_1              = 2012-08-20T17:43:00.000      136.957746056179
    ANGLE_2              = 2012-08-20T17:43:00.000      50.2222157296286
    ANGLE_1              = 2012-08-20T17:44:00.000      137.349145494109
    ANGLE_2              = 2012-08-20T17:44:00.000      50.1534710040831
    ANGLE_1              = 2012-08-20T17:45:00.000      137.741919737618
    ANGLE_2              = 2012-08-20T17:45:00.000      50.082783474489
    ANGLE_1              = 2012-08-20T17:46:00.000      138.133449447464
    ANGLE_2              = 2012-08-20T17:46:00.000      50.0123642454381
    ANGLE_1              = 2012-08-20T17:47:00.000      138.521597593976
