stk/BookEx7_2ODTK/testno1.tdm

CCSDS_TDM_VERS = 1.0

COMMENT File created by ODTK.
COMMENT Range and doppler values are 2-way values.

CREATION_DATE  = 2017-11-17T15:37:56
ORIGINATOR     = ODTK

META_START
    TIME_SYSTEM          = UTC
    START_TIME           = 2012-08-20T11:00:00.000
    STOP_TIME            = 2012-08-20T18:00:00.000
    PARTICIPANT_1        = 222
    PARTICIPANT_2        = 11111
    MODE                 = SEQUENTIAL
    PATH                 = 2,1
    TIMETAG_REF          = RECEIVE
    REFERENCE_FRAME      = EME2000
    ANGLE_TYPE           = RADEC
META_STOP

DATA_START
    ANGLE_1              = 2012-08-20T11:00:00.000      28.5253079752697
    ANGLE_2              = 2012-08-20T11:00:00.000     -6.23679183192049
    ANGLE_1              = 2012-08-20T11:01:00.000      28.674747351767
    ANGLE_2              = 2012-08-20T11:01:00.000     -6.02221632846457
    ANGLE_1              = 2012-08-20T11:02:00.000      28.8241952084452
    ANGLE_2              = 2012-08-20T11:02:00.000     -5.80753711898586
    ANGLE_1              = 2012-08-20T11:03:00.000      28.973655235713
    ANGLE_2              = 2012-08-20T11:03:00.000     -5.59275635004882
    ANGLE_1              = 2012-08-20T11:04:00.000      29.1231311248455
    ANGLE_2              = 2012-08-20T11:04:00.000     -5.37787617601843
    ANGLE_1              = 2012-08-20T11:05:00.000      29.2726265682584
    ANGLE_2              = 2012-08-20T11:05:00.000     -5.16289875910911
    ANGLE_1              = 2012-08-20T11:06:00.000      29.4221452597597
    ANGLE_2              = 2012-08-20T11:06:00.000     -4.94782626943292
    ANGLE_1              = 2012-08-20T11:07:00.000      29.5716908948203
    ANGLE_2              = 2012-08-20T11:07:00.000     -4.73266088504697
    ANGLE_1              = 2012-08-20T11:08:00.000      29.7212671708383
    ANGLE_2              = 2012-08-20T11:08:00.000     -4.51740479200024
    ANGLE_1              = 2012-08-20T11:09:00.000      29.8708777874027
    ANGLE_2              = 2012-08-20T11:09:00.000     -4.30206018437949
    ANGLE_1              = 2012-08-20T11:10:00.000      30.0205264465564
    ANGLE_2              = 2012-08-20T11:10:00.000     -4.08662926435482
    ANGLE_1              = 2012-08-20T11:11:00.000      30.1702168530594
    ANGLE_2              = 2012-08-20T11:11:00.000     -3.87111424222434
    ANGLE_1              = 2012-08-20T11:12:00.000      30.3199527146627
    ANGLE_2              = 2012-08-20T11:12:00.000     -3.65551733645843
    ANGLE_1              = 2012-08-20T11:13:00.000      30.4697377423612
    ANGLE_2              = 2012-08-20T11:13:00.000     -3.43984077374331
    ANGLE_1              = 2012-08-20T11:14:00.000      30.6195756506654
    ANGLE_2              = 2012-08-20T11:14:00.000     -3.22408678902409
    ANGLE_1              = 2012-08-20T11:15:00.000      30.7694701578685
    ANGLE_2              = 2012-08-20T11:15:00.000     -3.00825762554734
    ANGLE_1              = 2012-08-20T11:16:00.000      30.919424986303
    ANGLE_2              = 2012-08-20T11:16:00.000     -2.79235553490312
    ANGLE_1              = 2012-08-20T11:17:00.000      31.0694438626198
    ANGLE_2              = 2012-08-20T11:17:00.000     -2.57638277706656
    ANGLE_1              = 2012-08-20T11:18:00.000      31.2195305180412
    ANGLE_2              = 2012-08-20T11:18:00.000     -2.36034162043906
    ANGLE_1              = 2012-08-20T11:19:00.000      31.3696886886362
    ANGLE_2              = 2012-08-20T11:19:00.000     -2.14423434188896
    ANGLE_1              = 2012-08-20T11:20:00.000      31.51992211558
    ANGLE_2              = 2012-08-20T11:20:00.000     -1.92806322679201
    ANGLE_1              = 2012-08-20T11:21:00.000      31.6702345454299
    ANGLE_2              = 2012-08-20T11:21:00.000     -1.71183056907121
    ANGLE_1              = 2012-08-20T11:22:00.000      31.8206297303813
    ANGLE_2              = 2012-08-20T11:22:00.000     -1.49553867123679
    ANGLE_1              = 2012-08-20T11:23:00.000      31.9711114285398
    ANGLE_2              = 2012-08-20T11:23:00.000     -1.27918984442534
    ANGLE_1              = 2012-08-20T11:24:00.000      32.1216834041956
    ANGLE_2              = 2012-08-20T11:24:00.000     -1.06278640843914
    ANGLE_1              = 2012-08-20T11:25:00.000      32.2723494280795
    ANGLE_2              = 2012-08-20T11:25:00.000     -0.846330691785017
    ANGLE_1              = 2012-08-20T11:26:00.000      32.4231132776404
    ANGLE_2              = 2012-08-20T11:26:00.000     -0.62982503171311
    ANGLE_1              = 2012-08-20T11:27:00.000      32.5739787373084
    ANGLE_2              = 2012-08-20T11:27:00.000     -0.413271774255351
    ANGLE_1              = 2012-08-20T11:28:00.000      32.7249495987658
    ANGLE_2              = 2012-08-20T11:28:00.000     -0.196673274264006
    ANGLE_1              = 2012-08-20T11:29:00.000      32.8760296612193
    ANGLE_2              = 2012-08-20T11:29:00.000      0.0199681045500895
    ANGLE_1              = 2012-08-20T11:30:00.000      33.0272227316608
    ANGLE_2              = 2012-08-20T11:30:00.000      0.236649989579248
    ANGLE_1              = 2012-08-20T11:31:00.000      33.1785326251512
    ANGLE_2              = 2012-08-20T11:31:00.000      0.453369999280744
    ANGLE_1              = 2012-08-20T11:32:00.000      33.3299631650772
    ANGLE_2              = 2012-08-20T11:32:00.000      0.670125743138624
    ANGLE_1              = 2012-08-20T11:33:00.000      33.4815181834316
    ANGLE_2              = 2012-08-20T11:33:00.000      0.886914821625343
    ANGLE_1              = 2012-08-20T11:34:00.000      33.6332015210793
    ANGLE_2              = 2012-08-20T11:34:00.000      1.10373482616375
    ANGLE_1              = 2012-08-20T11:35:00.000      33.7850170280304
    ANGLE_2              = 2012-08-20T11:35:00.000      1.3205833390884
    ANGLE_1              = 2012-08-20T11:36:00.000      33.9369685637154
    ANGLE_2              = 2012-08-20T11:36:00.000      1.53745793360731
    ANGLE_1              = 2012-08-20T11:37:00.000      34.0890599972517
    ANGLE_2              = 2012-08-20T11:37:00.000      1.75435617376313
    ANGLE_1              = 2012-08-20T11:38:00.000      34.2412952077229
    ANGLE_2              = 2012-08-20T11:38:00.000      1.97127561439442
    ANGLE_1              = 2012-08-20T11:39:00.000      34.3936780844475
    ANGLE_2              = 2012-08-20T11:39:00.000      2.18821380109637
    ANGLE_1              = 2012-08-20T11:40:00.000      34.5462125272543
    ANGLE_2              = 2012-08-20T11:40:00.000      2.40516827018175
    ANGLE_1              = 2012-08-20T11:41:00.000      34.6989024467591
    ANGLE_2              = 2012-08-20T11:41:00.000      2.622136548641
    ANGLE_1              = 2012-08-20T11:42:00.000      34.8517517646346
    ANGLE_2              = 2012-08-20T11:42:00.000      2.83911615410235
    ANGLE_1              = 2012-08-20T11:43:00.000      35.0047644138912
    ANGLE_2              = 2012-08-20T11:43:00.000      3.05610459479157
    ANGLE_1              = 2012-08-20T11:44:00.000      35.1579443391468
    ANGLE_2              = 2012-08-20T11:44:00.000      3.27309936949108
    ANGLE_1              = 2012-08-20T11:45:00.000      35.3112954969095
    ANGLE_2              = 2012-08-20T11:45:00.000      3.49009796749886
    ANGLE_1              = 2012-08-20T11:46:00.000      35.4648218558483
    ANGLE_2              = 2012-08-20T11:46:00.000      3.70709786858679
    ANGLE_1              = 2012-08-20T11:47:00.000      35.6185273970729
    ANGLE_2              = 2012-08-20T11:47:00.000      3.92409654295842
    ANGLE_1              = 2012-08-20T11:48:00.000      35.7724161144131
    ANGLE_2              = 2012-08-20T11:48:00.000      4.14109145120628
    ANGLE_1              = 2012-08-20T11:49:00.000      35.9264920146922
    ANGLE_2              = 2012-08-20T11:49:00.000      4.35808004426863
    ANGLE_1              = 2012-08-20T11:50:00.000      36.0807591180112
    ANGLE_2              = 2012-08-20T11:50:00.000      4.57505976338544
    ANGLE_1              = 2012-08-20T11:51:00.000      36.2352214580214
    ANGLE_2              = 2012-08-20T11:51:00.000      4.79202804005387
    ANGLE_1              = 2012-08-20T11:52:00.000      36.3898830822107
    ANGLE_2              = 2012-08-20T11:52:00.000      5.00898229598293
    ANGLE_1              = 2012-08-20T11:53:00.000      36.5447480521777
    ANGLE_2              = 2012-08-20T11:53:00.000      5.22591994304757
    ANGLE_1              = 2012-08-20T11:54:00.000      36.6998204439142
    ANGLE_2              = 2012-08-20T11:54:00.000      5.44283838324173
    ANGLE_1              = 2012-08-20T11:55:00.000      36.8551043480881
    ANGLE_2              = 2012-08-20T11:55:00.000      5.65973500863088
    ANGLE_1              = 2012-08-20T11:56:00.000      37.0106038703227
    ANGLE_2              = 2012-08-20T11:56:00.000      5.8766072013035
    ANGLE_1              = 2012-08-20T11:57:00.000      37.1663231314769
    ANGLE_2              = 2012-08-20T11:57:00.000      6.0934523333217
    ANGLE_1              = 2012-08-20T11:58:00.000      37.3222662679296
    ANGLE_2              = 2012-08-20T11:58:00.000      6.31026776667108
    ANGLE_1              = 2012-08-20T11:59:00.000      37.4784374318614
    ANGLE_2              = 2012-08-20T11:59:00.000      6.52705085320936
    ANGLE_1              = 2012-08-20T12:00:00.000      37.6348407915393
    ANGLE_2              = 2012-08-20T12:00:00.000      6.74379893461422
    ANGLE_1              = 2012-08-20T12:01:00.000      37.7914805315959
    ANGLE_2              = 2012-08-20T12:01:00.000      6.96050934233001
    ANGLE_1              = 2012-08-20T12:02:00.000      37.9483608533181
    ANGLE_2              = 2012-08-20T12:02:00.000      7.17717939751335
    ANGLE_1              = 2012-08-20T12:03:00.000      38.1054859749282
    ANGLE_2              = 2012-08-20T12:03:00.000      7.39380641097777
    ANGLE_1              = 2012-08-20T12:04:00.000      38.2628601318684
    ANGLE_2              = 2012-08-20T12:04:00.000      7.61038768313678
    ANGLE_1              = 2012-08-20T12:05:00.000      38.4204875770863
    ANGLE_2              = 2012-08-20T12:05:00.000      7.82692050394641
    ANGLE_1              = 2012-08-20T12:06:00.000      38.5783725813192
    ANGLE_2              = 2012-08-20T12:06:00.000      8.04340215284583
    ANGLE_1              = 2012-08-20T12:07:00.000      38.7365194333831
    ANGLE_2              = 2012-08-20T12:07:00.000      8.25982989869701
    ANGLE_1              = 2012-08-20T12:08:00.000      38.8949324404517
    ANGLE_2              = 2012-08-20T12:08:00.000      8.47620099972316
    ANGLE_1              = 2012-08-20T12:09:00.000      39.0536159283489
    ANGLE_2              = 2012-08-20T12:09:00.000      8.69251270344557
    ANGLE_1              = 2012-08-20T12:10:00.000      39.2125742418331
    ANGLE_2              = 2012-08-20T12:10:00.000      8.9087622466192
    ANGLE_1              = 2012-08-20T12:11:00.000      39.3718117448781
    ANGLE_2              = 2012-08-20T12:11:00.000      9.12494685516675
    ANGLE_1              = 2012-08-20T12:12:00.000      39.5313328209695
    ANGLE_2              = 2012-08-20T12:12:00.000      9.34106374411125
    ANGLE_1              = 2012-08-20T12:13:00.000      39.6911418733831
    ANGLE_2              = 2012-08-20T12:13:00.000      9.55711011750732
    ANGLE_1              = 2012-08-20T12:14:00.000      39.8512433254767
    ANGLE_2              = 2012-08-20T12:14:00.000      9.77308316837044
    ANGLE_1              = 2012-08-20T12:15:00.000      40.0116416209755
    ANGLE_2              = 2012-08-20T12:15:00.000      9.98898007860512
    ANGLE_1              = 2012-08-20T12:16:00.000      40.172341224257
    ANGLE_2              = 2012-08-20T12:16:00.000      10.2047980189311
    ANGLE_1              = 2012-08-20T12:17:00.000      40.333346620643
    ANGLE_2              = 2012-08-20T12:17:00.000      10.4205341488078
    ANGLE_1              = 2012-08-20T12:18:00.000      40.4946623166792
    ANGLE_2              = 2012-08-20T12:18:00.000      10.6361856163576
    ANGLE_1              = 2012-08-20T12:19:00.000      40.6562928404317
    ANGLE_2              = 2012-08-20T12:19:00.000      10.8517495582865
    ANGLE_1              = 2012-08-20T12:20:00.000      40.8182427417646
    ANGLE_2              = 2012-08-20T12:20:00.000      11.0672230998036
    ANGLE_1              = 2012-08-20T12:21:00.000      40.9805165926338
    ANGLE_2              = 2012-08-20T12:21:00.000      11.2826033545388
    ANGLE_1              = 2012-08-20T12:22:00.000      41.1431189873711
    ANGLE_2              = 2012-08-20T12:22:00.000      11.497887424458
    ANGLE_1              = 2012-08-20T12:23:00.000      41.3060545429646
    ANGLE_2              = 2012-08-20T12:23:00.000      11.713072399777
    ANGLE_1              = 2012-08-20T12:24:00.000      41.4693278993593
    ANGLE_2              = 2012-08-20T12:24:00.000      11.9281553588729
    ANGLE_1              = 2012-08-20T12:25:00.000      41.6329437197252
    ANGLE_2              = 2012-08-20T12:25:00.000      12.1431333681943
    ANGLE_1              = 2012-08-20T12:26:00.000      41.7969066907573
    ANGLE_2              = 2012-08-20T12:26:00.000      12.3580034821683
    ANGLE_1              = 2012-08-20T12:27:00.000      41.9612215229506
    ANGLE_2              = 2012-08-20T12:27:00.000      12.5727627431066
    ANGLE_1              = 2012-08-20T12:28:00.000      42.1258929508909
    ANGLE_2              = 2012-08-20T12:28:00.000      12.7874081811086
    ANGLE_1              = 2012-08-20T12:29:00.000      42.2909257335367
    ANGLE_2              = 2012-08-20T12:29:00.000      13.0019368139627
    ANGLE_1              = 2012-08-20T12:30:00.000      42.4563246544964
    ANGLE_2              = 2012-08-20T12:30:00.000      13.2163456470454
    ANGLE_1              = 2012-08-20T12:31:00.000      42.6220945223243
    ANGLE_2              = 2012-08-20T12:31:00.000      13.4306316732181
    ANGLE_1              = 2012-08-20T12:32:00.000      42.7882401707866
    ANGLE_2              = 2012-08-20T12:32:00.000      13.6447918727216
    ANGLE_1              = 2012-08-20T12:33:00.000      42.9547664591546
    ANGLE_2              = 2012-08-20T12:33:00.000      13.8588232130685
    ANGLE_1              = 2012-08-20T12:34:00.000      43.1216782724799
    ANGLE_2              = 2012-08-20T12:34:00.000      14.0727226489326
    ANGLE_1              = 2012-08-20T12:35:00.000      43.2889805218686
    ANGLE_2              = 2012-08-20T12:35:00.000      14.2864871220368
    ANGLE_1              = 2012-08-20T12:36:00.000      43.4566781447718
    ANGLE_2              = 2012-08-20T12:36:00.000      14.5001135610381
    ANGLE_1              = 2012-08-20T12:37:00.000      43.6247761052455
    ANGLE_2              = 2012-08-20T12:37:00.000      14.7135988814097
    ANGLE_1              = 2012-08-20T12:38:00.000      43.7932793942444
    ANGLE_2              = 2012-08-20T12:38:00.000      14.9269399853215
    ANGLE_1              = 2012-08-20T12:39:00.000      43.9621930298781
    ANGLE_2              = 2012-08-20T12:39:00.000      15.1401337615174
    ANGLE_1              = 2012-08-20T12:40:00.000      44.1315220576974
    ANGLE_2              = 2012-08-20T12:40:00.000      15.3531770851904
    ANGLE_1              = 2012-08-20T12:41:00.000      44.3012715509604
    ANGLE_2              = 2012-08-20T12:41:00.000      15.5660668178544
    ANGLE_1              = 2012-08-20T12:42:00.000      44.4714466108968
    ANGLE_2              = 2012-08-20T12:42:00.000      15.7787998072144
    ANGLE_1              = 2012-08-20T12:43:00.000      44.6420523669885
    ANGLE_2              = 2012-08-20T12:43:00.000      15.9913728870333
    ANGLE_1              = 2012-08-20T12:44:00.000      44.8130939772184
    ANGLE_2              = 2012-08-20T12:44:00.000      16.2037828769957
    ANGLE_1              = 2012-08-20T12:45:00.000      44.9845766283525
    ANGLE_2              = 2012-08-20T12:45:00.000      16.4160265825702
    ANGLE_1              = 2012-08-20T12:46:00.000      45.1565055361848
    ANGLE_2              = 2012-08-20T12:46:00.000      16.6281007948672
    ANGLE_1              = 2012-08-20T12:47:00.000      45.3288859458066
    ANGLE_2              = 2012-08-20T12:47:00.000      16.8400022904952
    ANGLE_1              = 2012-08-20T12:48:00.000      45.5017231318655
    ANGLE_2              = 2012-08-20T12:48:00.000      17.0517278314141
    ANGLE_1              = 2012-08-20T12:49:00.000      45.6750223988082
    ANGLE_2              = 2012-08-20T12:49:00.000      17.2632741647844
    ANGLE_1              = 2012-08-20T12:50:00.000      45.848789081148
    ANGLE_2              = 2012-08-20T12:50:00.000      17.4746380228155
    ANGLE_1              = 2012-08-20T12:51:00.000      46.0230285436978
    ANGLE_2              = 2012-08-20T12:51:00.000      17.6858161226091
    ANGLE_1              = 2012-08-20T12:52:00.000      46.1977461818325
    ANGLE_2              = 2012-08-20T12:52:00.000      17.8968051660008
    ANGLE_1              = 2012-08-20T12:53:00.000      46.3729474217196
    ANGLE_2              = 2012-08-20T12:53:00.000      18.1076018393983
    ANGLE_1              = 2012-08-20T12:54:00.000      46.5486377205615
    ANGLE_2              = 2012-08-20T12:54:00.000      18.3182028136168
    ANGLE_1              = 2012-08-20T12:55:00.000      46.7248225668411
    ANGLE_2              = 2012-08-20T12:55:00.000      18.5286047437107
    ANGLE_1              = 2012-08-20T12:56:00.000      46.9015074805394
    ANGLE_2              = 2012-08-20T12:56:00.000      18.7388042688033
    ANGLE_1              = 2012-08-20T12:57:00.000      47.0786980133814
    ANGLE_2              = 2012-08-20T12:57:00.000      18.9487980119122
    ANGLE_1              = 2012-08-20T12:58:00.000      47.2563997490448
    ANGLE_2              = 2012-08-20T12:58:00.000      19.1585825797722
    ANGLE_1              = 2012-08-20T12:59:00.000      47.4346183033943
    ANGLE_2              = 2012-08-20T12:59:00.000      19.3681545626553
    ANGLE_1              = 2012-08-20T13:00:00.000      47.6133593246935
    ANGLE_2              = 2012-08-20T13:00:00.000      19.5775105341869
    ANGLE_1              = 2012-08-20T13:01:00.000      47.7926284938111
    ANGLE_2              = 2012-08-20T13:01:00.000      19.7866470511588
    ANGLE_1              = 2012-08-20T13:02:00.000      47.9724315244425
    ANGLE_2              = 2012-08-20T13:02:00.000      19.9955606533397
    ANGLE_1              = 2012-08-20T13:03:00.000      48.1527741632954
    ANGLE_2              = 2012-08-20T13:03:00.000      20.2042478632816
    ANGLE_1              = 2012-08-20T13:04:00.000      48.3336621903045
    ANGLE_2              = 2012-08-20T13:04:00.000      20.4127051861234
    ANGLE_1              = 2012-08-20T13:05:00.000      48.5151014188067
    ANGLE_2              = 2012-08-20T13:05:00.000      20.6209291093913
    ANGLE_1              = 2012-08-20T13:06:00.000      48.6970976957411
    ANGLE_2              = 2012-08-20T13:06:00.000      20.8289161027955
    ANGLE_1              = 2012-08-20T13:07:00.000      48.8796569018246
    ANGLE_2              = 2012-08-20T13:07:00.000      21.0366626180236
    ANGLE_1              = 2012-08-20T13:08:00.000      49.0627849517203
    ANGLE_2              = 2012-08-20T13:08:00.000      21.2441650885313
    ANGLE_1              = 2012-08-20T13:09:00.000      49.2464877942196
    ANGLE_2              = 2012-08-20T13:09:00.000      21.4514199293292
    ANGLE_1              = 2012-08-20T13:10:00.000      49.4307714123875
    ANGLE_2              = 2012-08-20T13:10:00.000      21.6584235367659
    ANGLE_1              = 2012-08-20T13:11:00.000      49.6156418237307
    ANGLE_2              = 2012-08-20T13:11:00.000      21.8651722883092
    ANGLE_1              = 2012-08-20T13:12:00.000      49.801105080338
    ANGLE_2              = 2012-08-20T13:12:00.000      22.0716625423216
    ANGLE_1              = 2012-08-20T13:13:00.000      49.9871672690203
    ANGLE_2              = 2012-08-20T13:13:00.000      22.2778906378351
    ANGLE_1              = 2012-08-20T13:14:00.000      50.1738345114483
    ANGLE_2              = 2012-08-20T13:14:00.000      22.4838528943203
    ANGLE_1              = 2012-08-20T13:15:00.000      50.3611129642661
    ANGLE_2              = 2012-08-20T13:15:00.000      22.6895456114537
    ANGLE_1              = 2012-08-20T13:16:00.000      50.5490088192226
    ANGLE_2              = 2012-08-20T13:16:00.000      22.8949650688808
    ANGLE_1              = 2012-08-20T13:17:00.000      50.7375283032614
    ANGLE_2              = 2012-08-20T13:17:00.000      23.1001075259759
    ANGLE_1              = 2012-08-20T13:18:00.000      50.9266776786322
    ANGLE_2              = 2012-08-20T13:18:00.000      23.3049692215989
    ANGLE_1              = 2012-08-20T13:19:00.000      51.1164632429745
    ANGLE_2              = 2012-08-20T13:19:00.000      23.5095463738486
    ANGLE_1              = 2012-08-20T13:20:00.000      51.3068913293943
    ANGLE_2              = 2012-08-20T13:20:00.000      23.7138351798122
    ANGLE_1              = 2012-08-20T13:21:00.000      51.4979683065391
    ANGLE_2              = 2012-08-20T13:21:00.000      23.9178318153121
    ANGLE_1              = 2012-08-20T13:22:00.000      51.6897005786485
    ANGLE_2              = 2012-08-20T13:22:00.000      24.1215324346487
    ANGLE_1              = 2012-08-20T13:23:00.000      51.8820945856109
    ANGLE_2              = 2012-08-20T13:23:00.000      24.3249331703407
    ANGLE_1              = 2012-08-20T13:24:00.000      52.075156802992
    ANGLE_2              = 2012-08-20T13:24:00.000      24.5280301328612
    ANGLE_1              = 2012-08-20T13:25:00.000      52.2688937420659
    ANGLE_2              = 2012-08-20T13:25:00.000      24.730819410371
    ANGLE_1              = 2012-08-20T13:26:00.000      52.4633119498248
    ANGLE_2              = 2012-08-20T13:26:00.000      24.9332970684489
    ANGLE_1              = 2012-08-20T13:27:00.000      52.6584180089782
    ANGLE_2              = 2012-08-20T13:27:00.000      25.1354591498177
    ANGLE_1              = 2012-08-20T13:28:00.000      52.8542185379459
    ANGLE_2              = 2012-08-20T13:28:00.000      25.3373016740686
    ANGLE_1              = 2012-08-20T13:29:00.000      53.0507201908237
    ANGLE_2              = 2012-08-20T13:29:00.000      25.5388206373807
    ANGLE_1              = 2012-08-20T13:30:00.000      53.2479296573529
    ANGLE_2              = 2012-08-20T13:30:00.000      25.7400120122385
    ANGLE_1              = 2012-08-20T13:31:00.000      53.4458536628622
    ANGLE_2              = 2012-08-20T13:31:00.000      25.940871747146
    ANGLE_1              = 2012-08-20T13:32:00.000      53.6444989681976
    ANGLE_2              = 2012-08-20T13:32:00.000      26.1413957663376
    ANGLE_1              = 2012-08-20T13:33:00.000      53.8438723696432
    ANGLE_2              = 2012-08-20T13:33:00.000      26.3415799694859
    ANGLE_1              = 2012-08-20T13:34:00.000      54.0439806988173
    ANGLE_2              = 2012-08-20T13:34:00.000      26.5414202314067
    ANGLE_1              = 2012-08-20T13:35:00.000      54.2448308225598
    ANGLE_2              = 2012-08-20T13:35:00.000      26.7409124017609
    ANGLE_1              = 2012-08-20T13:36:00.000      54.4464296427982
    ANGLE_2              = 2012-08-20T13:36:00.000      26.9400523047538
    ANGLE_1              = 2012-08-20T13:37:00.000      54.6487840963997
    ANGLE_2              = 2012-08-20T13:37:00.000      27.1388357388312
    ANGLE_1              = 2012-08-20T13:38:00.000      54.8519011550028
    ANGLE_2              = 2012-08-20T13:38:00.000      27.337258476373
    ANGLE_1              = 2012-08-20T13:39:00.000      55.0557878248293
    ANGLE_2              = 2012-08-20T13:39:00.000      27.5353162633836
    ANGLE_1              = 2012-08-20T13:40:00.000      55.2604511464836
    ANGLE_2              = 2012-08-20T13:40:00.000      27.7330048191806
    ANGLE_1              = 2012-08-20T13:41:00.000      55.4658981947235
    ANGLE_2              = 2012-08-20T13:41:00.000      27.93031983608
    ANGLE_1              = 2012-08-20T13:42:00.000      55.6721360782195
    ANGLE_2              = 2012-08-20T13:42:00.000      28.1272569790793
    ANGLE_1              = 2012-08-20T13:43:00.000      55.8791719392852
    ANGLE_2              = 2012-08-20T13:43:00.000      28.3238118855382
    ANGLE_1              = 2012-08-20T13:44:00.000      56.0870129535947
    ANGLE_2              = 2012-08-20T13:44:00.000      28.5199801648569
    ANGLE_1              = 2012-08-20T13:45:00.000      56.2956663298716
    ANGLE_2              = 2012-08-20T13:45:00.000      28.7157573981524
    ANGLE_1              = 2012-08-20T13:46:00.000      56.5051393095546
    ANGLE_2              = 2012-08-20T13:46:00.000      28.9111391379319
    ANGLE_1              = 2012-08-20T13:47:00.000      56.7154391664442
    ANGLE_2              = 2012-08-20T13:47:00.000      29.1061209077653
    ANGLE_1              = 2012-08-20T13:48:00.000      56.9265732063262
    ANGLE_2              = 2012-08-20T13:48:00.000      29.3006982019547
    ANGLE_1              = 2012-08-20T13:49:00.000      57.1385487665604
    ANGLE_2              = 2012-08-20T13:49:00.000      29.4948664852029
    ANGLE_1              = 2012-08-20T13:50:00.000      57.3513732156582
    ANGLE_2              = 2012-08-20T13:50:00.000      29.6886211922794
    ANGLE_1              = 2012-08-20T13:51:00.000      57.5650539528195
    ANGLE_2              = 2012-08-20T13:51:00.000      29.8819577276853
    ANGLE_1              = 2012-08-20T13:52:00.000      57.7795984074556
    ANGLE_2              = 2012-08-20T13:52:00.000      30.0748714653171
    ANGLE_1              = 2012-08-20T13:53:00.000      57.995014038673
    ANGLE_2              = 2012-08-20T13:53:00.000      30.2673577481279
    ANGLE_1              = 2012-08-20T13:54:00.000      58.2113083347355
    ANGLE_2              = 2012-08-20T13:54:00.000      30.4594118877886
    ANGLE_1              = 2012-08-20T13:55:00.000      58.4284888124976
    ANGLE_2              = 2012-08-20T13:55:00.000      30.6510291643479
    ANGLE_1              = 2012-08-20T13:56:00.000      58.6465630168001
    ANGLE_2              = 2012-08-20T13:56:00.000      30.8422048258904
    ANGLE_1              = 2012-08-20T13:57:00.000      58.8655385198451
    ANGLE_2              = 2012-08-20T13:57:00.000      31.0329340881954
    ANGLE_1              = 2012-08-20T13:58:00.000      59.0854229205299
    ANGLE_2              = 2012-08-20T13:58:00.000      31.2232121343937
    ANGLE_1              = 2012-08-20T13:59:00.000      59.3062238437502
    ANGLE_2              = 2012-08-20T13:59:00.000      31.4130341146251
    ANGLE_1              = 2012-08-20T14:00:00.000      59.5279489396816
    ANGLE_2              = 2012-08-20T14:00:00.000      31.6023951456949
    ANGLE_1              = 2012-08-20T14:01:00.000      59.7506058830034
    ANGLE_2              = 2012-08-20T14:01:00.000      31.791290310731
    ANGLE_1              = 2012-08-20T14:02:00.000      59.9742023721101
    ANGLE_2              = 2012-08-20T14:02:00.000      31.9797146588401
    ANGLE_1              = 2012-08-20T14:03:00.000      60.1987461282704
    ANGLE_2              = 2012-08-20T14:03:00.000      32.1676632047655
    ANGLE_1              = 2012-08-20T14:04:00.000      60.4242448947611
    ANGLE_2              = 2012-08-20T14:04:00.000      32.3551309285445
    ANGLE_1              = 2012-08-20T14:05:00.000      60.6507064359517
    ANGLE_2              = 2012-08-20T14:05:00.000      32.5421127751669
    ANGLE_1              = 2012-08-20T14:06:00.000      60.8781385363577
    ANGLE_2              = 2012-08-20T14:06:00.000      32.7286036542342
    ANGLE_1              = 2012-08-20T14:07:00.000      61.1065489996542
    ANGLE_2              = 2012-08-20T14:07:00.000      32.9145984396205
    ANGLE_1              = 2012-08-20T14:08:00.000      61.3359456476391
    ANGLE_2              = 2012-08-20T14:08:00.000      33.1000919691344
    ANGLE_1              = 2012-08-20T14:09:00.000      61.5663363191712
    ANGLE_2              = 2012-08-20T14:09:00.000      33.2850790441827
    ANGLE_1              = 2012-08-20T14:10:00.000      61.7977288690431
    ANGLE_2              = 2012-08-20T14:10:00.000      33.4695544294358
    ANGLE_1              = 2012-08-20T14:11:00.000      62.0301311668276
    ANGLE_2              = 2012-08-20T14:11:00.000      33.6535128524958
    ANGLE_1              = 2012-08-20T14:12:00.000      62.2635510956802
    ANGLE_2              = 2012-08-20T14:12:00.000      33.8369490035666
    ANGLE_1              = 2012-08-20T14:13:00.000      62.4979965510766
    ANGLE_2              = 2012-08-20T14:13:00.000      34.019857535127
    ANGLE_1              = 2012-08-20T14:14:00.000      62.7334754395248
    ANGLE_2              = 2012-08-20T14:14:00.000      34.2022330616066
    ANGLE_1              = 2012-08-20T14:15:00.000      62.9699956772129
    ANGLE_2              = 2012-08-20T14:15:00.000      34.3840701590654
    ANGLE_1              = 2012-08-20T14:16:00.000      63.2075651886238
    ANGLE_2              = 2012-08-20T14:16:00.000      34.5653633648765
    ANGLE_1              = 2012-08-20T14:17:00.000      63.4461919050771
    ANGLE_2              = 2012-08-20T14:17:00.000      34.7461071774135
    ANGLE_1              = 2012-08-20T14:18:00.000      63.6858837632411
    ANGLE_2              = 2012-08-20T14:18:00.000      34.9262960557413
    ANGLE_1              = 2012-08-20T14:19:00.000      63.9266487035883
    ANGLE_2              = 2012-08-20T14:19:00.000      35.1059244193123
    ANGLE_1              = 2012-08-20T14:20:00.000      64.1684946687815
    ANGLE_2              = 2012-08-20T14:20:00.000      35.2849866476672
    ANGLE_1              = 2012-08-20T14:21:00.000      64.4114296020271
    ANGLE_2              = 2012-08-20T14:21:00.000      35.4634770801413
    ANGLE_1              = 2012-08-20T14:22:00.000      64.6554614453565
    ANGLE_2              = 2012-08-20T14:22:00.000      35.641390015576
    ANGLE_1              = 2012-08-20T14:23:00.000      64.9005981378581
    ANGLE_2              = 2012-08-20T14:23:00.000      35.8187197120376
    ANGLE_1              = 2012-08-20T14:24:00.000      65.146847613854
    ANGLE_2              = 2012-08-20T14:24:00.000      35.995460386541
    ANGLE_1              = 2012-08-20T14:25:00.000      65.394217801007
    ANGLE_2              = 2012-08-20T14:25:00.000      36.1716062147817
    ANGLE_1              = 2012-08-20T14:26:00.000      65.6427166183816
    ANGLE_2              = 2012-08-20T14:26:00.000      36.3471513308741
    ANGLE_1              = 2012-08-20T14:27:00.000      65.8923519744289
    ANGLE_2              = 2012-08-20T14:27:00.000      36.5220898270978
    ANGLE_1              = 2012-08-20T14:28:00.000      66.1431317649273
    ANGLE_2              = 2012-08-20T14:28:00.000      36.696415753653
    ANGLE_1              = 2012-08-20T14:29:00.000      66.3950638708368
    ANGLE_2              = 2012-08-20T14:29:00.000      36.8701231184227
    ANGLE_1              = 2012-08-20T14:30:00.000      66.6481561561112
    ANGLE_2              = 2012-08-20T14:30:00.000      37.0432058867455
    ANGLE_1              = 2012-08-20T14:31:00.000      66.902416465434
    ANGLE_2              = 2012-08-20T14:31:00.000      37.2156579811974
    ANGLE_1              = 2012-08-20T14:32:00.000      67.157852621885
    ANGLE_2              = 2012-08-20T14:32:00.000      37.3874732813834
    ANGLE_1              = 2012-08-20T14:33:00.000      67.4144724245488
    ANGLE_2              = 2012-08-20T14:33:00.000      37.5586456237403
    ANGLE_1              = 2012-08-20T14:34:00.000      67.6722836460449
    ANGLE_2              = 2012-08-20T14:34:00.000      37.7291688013496
    ANGLE_1              = 2012-08-20T14:35:00.000      67.9312940299952
    ANGLE_2              = 2012-08-20T14:35:00.000      37.899036563763
    ANGLE_1              = 2012-08-20T14:36:00.000      68.19151128842
    ANGLE_2              = 2012-08-20T14:36:00.000      38.068242616839
    ANGLE_1              = 2012-08-20T14:37:00.000      68.4529430990563
    ANGLE_2              = 2012-08-20T14:37:00.000      38.2367806225927
    ANGLE_1              = 2012-08-20T14:38:00.000      68.7155971026155
    ANGLE_2              = 2012-08-20T14:38:00.000      38.4046441990589
    ANGLE_1              = 2012-08-20T14:39:00.000      68.9794808999529
    ANGLE_2              = 2012-08-20T14:39:00.000      38.5718269201685
    ANGLE_1              = 2012-08-20T14:40:00.000      69.2446020491784
    ANGLE_2              = 2012-08-20T14:40:00.000      38.7383223156394
    ANGLE_1              = 2012-08-20T14:41:00.000      69.5109680626782
    ANGLE_2              = 2012-08-20T14:41:00.000      38.9041238708825
    ANGLE_1              = 2012-08-20T14:42:00.000      69.7785864040695
    ANGLE_2              = 2012-08-20T14:42:00.000      39.0692250269231
    ANGLE_1              = 2012-08-20T14:43:00.000      70.0474644850777
    ANGLE_2              = 2012-08-20T14:43:00.000      39.2336191803383
    ANGLE_1              = 2012-08-20T14:44:00.000      70.3176096623325
    ANGLE_2              = 2012-08-20T14:44:00.000      39.3972996832116
    ANGLE_1              = 2012-08-20T14:45:00.000      70.5890292340863
    ANGLE_2              = 2012-08-20T14:45:00.000      39.5602598431042
    ANGLE_1              = 2012-08-20T14:46:00.000      70.861730436858
    ANGLE_2              = 2012-08-20T14:46:00.000      39.7224929230448
    ANGLE_1              = 2012-08-20T14:47:00.000      71.1357204419924
    ANGLE_2              = 2012-08-20T14:47:00.000      39.8839921415387
    ANGLE_1              = 2012-08-20T14:48:00.000      71.4110063521454
    ANGLE_2              = 2012-08-20T14:48:00.000      40.0447506725948
    ANGLE_1              = 2012-08-20T14:49:00.000      71.6875951976804
    ANGLE_2              = 2012-08-20T14:49:00.000      40.2047616457739
    ANGLE_1              = 2012-08-20T14:50:00.000      71.965493932993
    ANGLE_2              = 2012-08-20T14:50:00.000      40.3640181462575
    ANGLE_1              = 2012-08-20T14:51:00.000      72.2447094327492
    ANGLE_2              = 2012-08-20T14:51:00.000      40.5225132149378
    ANGLE_1              = 2012-08-20T14:52:00.000      72.5252484880408
    ANGLE_2              = 2012-08-20T14:52:00.000      40.6802398485297
    ANGLE_1              = 2012-08-20T14:53:00.000      72.807117802464
    ANGLE_2              = 2012-08-20T14:53:00.000      40.8371909997065
    ANGLE_1              = 2012-08-20T14:54:00.000      73.0903239881113
    ANGLE_2              = 2012-08-20T14:54:00.000      40.9933595772584
    ANGLE_1              = 2012-08-20T14:55:00.000      73.3748735614874
    ANGLE_2              = 2012-08-20T14:55:00.000      41.1487384462756
    ANGLE_1              = 2012-08-20T14:56:00.000      73.6607729393328
    ANGLE_2              = 2012-08-20T14:56:00.000      41.3033204283565
    ANGLE_1              = 2012-08-20T14:57:00.000      73.9480284343786
    ANGLE_2              = 2012-08-20T14:57:00.000      41.4570983018421
    ANGLE_1              = 2012-08-20T14:58:00.000      74.2366462510099
    ANGLE_2              = 2012-08-20T14:58:00.000      41.6100648020763
    ANGLE_1              = 2012-08-20T14:59:00.000      74.5266324808463
    ANGLE_2              = 2012-08-20T14:59:00.000      41.7622126216943
    ANGLE_1              = 2012-08-20T15:00:00.000      74.8179930982556
    ANGLE_2              = 2012-08-20T15:00:00.000      41.9135344109384
    ANGLE_1              = 2012-08-20T15:01:00.000      75.1107339557678
    ANGLE_2              = 2012-08-20T15:01:00.000      42.0640227780036
    ANGLE_1              = 2012-08-20T15:02:00.000      75.4048607794246
    ANGLE_2              = 2012-08-20T15:02:00.000      42.213670289412
    ANGLE_1              = 2012-08-20T15:03:00.000      75.7003791640407
    ANGLE_2              = 2012-08-20T15:03:00.000      42.3624694704184
    ANGLE_1              = 2012-08-20T15:04:00.000      75.9972945683881
    ANGLE_2              = 2012-08-20T15:04:00.000      42.5104128054465
    ANGLE_1              = 2012-08-20T15:05:00.000      76.2956123103097
    ANGLE_2              = 2012-08-20T15:05:00.000      42.657492738558
    ANGLE_1              = 2012-08-20T15:06:00.000      76.5953375617423
    ANGLE_2              = 2012-08-20T15:06:00.000      42.8037016739533
    ANGLE_1              = 2012-08-20T15:07:00.000      76.8964753436836
    ANGLE_2              = 2012-08-20T15:07:00.000      42.9490319765076
    ANGLE_1              = 2012-08-20T15:08:00.000      77.1990305210658
    ANGLE_2              = 2012-08-20T15:08:00.000      43.0934759723393
    ANGLE_1              = 2012-08-20T15:09:00.000      77.5030077975729
    ANGLE_2              = 2012-08-20T15:09:00.000      43.2370259494154
    ANGLE_1              = 2012-08-20T15:10:00.000      77.8084117103775
    ANGLE_2              = 2012-08-20T15:10:00.000      43.3796741581918
    ANGLE_1              = 2012-08-20T15:11:00.000      78.1152466248075
    ANGLE_2              = 2012-08-20T15:11:00.000      43.5214128122904
    ANGLE_1              = 2012-08-20T15:12:00.000      78.4235167289625
    ANGLE_2              = 2012-08-20T15:12:00.000      43.6622340892149
    ANGLE_1              = 2012-08-20T15:13:00.000      78.7332260282365
    ANGLE_2              = 2012-08-20T15:13:00.000      43.8021301311026
    ANGLE_1              = 2012-08-20T15:14:00.000      79.0443783398097
    ANGLE_2              = 2012-08-20T15:14:00.000      43.9410930455179
    ANGLE_1              = 2012-08-20T15:15:00.000      79.3569772870544
    ANGLE_2              = 2012-08-20T15:15:00.000      44.0791149062833
    ANGLE_1              = 2012-08-20T15:16:00.000      79.6710262939012
    ANGLE_2              = 2012-08-20T15:16:00.000      44.2161877543519
    ANGLE_1              = 2012-08-20T15:17:00.000      79.986528579141
    ANGLE_2              = 2012-08-20T15:17:00.000      44.3523035987218
    ANGLE_1              = 2012-08-20T15:18:00.000      80.303487150673
    ANGLE_2              = 2012-08-20T15:18:00.000      44.4874544173904
    ANGLE_1              = 2012-08-20T15:19:00.000      80.6219047997221
    ANGLE_2              = 2012-08-20T15:19:00.000      44.6216321583536
    ANGLE_1              = 2012-08-20T15:20:00.000      80.9417840949825
    ANGLE_2              = 2012-08-20T15:20:00.000      44.7548287406467
    ANGLE_1              = 2012-08-20T15:21:00.000      81.2631273767481
    ANGLE_2              = 2012-08-20T15:21:00.000      44.8870360554294
    ANGLE_1              = 2012-08-20T15:22:00.000      81.585936750989
    ANGLE_2              = 2012-08-20T15:22:00.000      45.0182459671164
    ANGLE_1              = 2012-08-20T15:23:00.000      81.9102140833912
    ANGLE_2              = 2012-08-20T15:23:00.000      45.1484503145517
    ANGLE_1              = 2012-08-20T15:24:00.000      82.2359609933875
    ANGLE_2              = 2012-08-20T15:24:00.000      45.2776409122295
    ANGLE_1              = 2012-08-20T15:25:00.000      82.5631788481329
    ANGLE_2              = 2012-08-20T15:25:00.000      45.4058095515612
    ANGLE_1              = 2012-08-20T15:26:00.000      82.8918687564918
    ANGLE_2              = 2012-08-20T15:26:00.000      45.532948002189
    ANGLE_1              = 2012-08-20T15:27:00.000      83.2220315629773
    ANGLE_2              = 2012-08-20T15:27:00.000      45.659048013347
    ANGLE_1              = 2012-08-20T15:28:00.000      83.5536678417083
    ANGLE_2              = 2012-08-20T15:28:00.000      45.78410131527
    ANGLE_1              = 2012-08-20T15:29:00.000      83.8867778903433
    ANGLE_2              = 2012-08-20T15:29:00.000      45.9080996206502
    ANGLE_1              = 2012-08-20T15:30:00.000      84.221361724013
    ANGLE_2              = 2012-08-20T15:30:00.000      46.0310346261427
    ANGLE_1              = 2012-08-20T15:31:00.000      84.5574190692794
    ANGLE_2              = 2012-08-20T15:31:00.000      46.1528980139201
    ANGLE_1              = 2012-08-20T15:32:00.000      84.8949493580714
    ANGLE_2              = 2012-08-20T15:32:00.000      46.2736814532752
    ANGLE_1              = 2012-08-20T15:33:00.000      85.2339517216776
    ANGLE_2              = 2012-08-20T15:33:00.000      46.3933766022752
    ANGLE_1              = 2012-08-20T15:34:00.000      85.5744249847262
    ANGLE_2              = 2012-08-20T15:34:00.000      46.511975109463
    ANGLE_1              = 2012-08-20T15:35:00.000      85.9163676592189
    ANGLE_2              = 2012-08-20T15:35:00.000      46.6294686156106
    ANGLE_1              = 2012-08-20T15:36:00.000      86.2597779386001
    ANGLE_2              = 2012-08-20T15:36:00.000      46.7458487555211
    ANGLE_1              = 2012-08-20T15:37:00.000      86.6046536918483
    ANGLE_2              = 2012-08-20T15:37:00.000      46.8611071598807
    ANGLE_1              = 2012-08-20T15:38:00.000      86.950992457654
    ANGLE_2              = 2012-08-20T15:38:00.000      46.975235457162
    ANGLE_1              = 2012-08-20T15:39:00.000      87.2987914386166
    ANGLE_2              = 2012-08-20T15:39:00.000      47.0882252755756
    ANGLE_1              = 2012-08-20T15:40:00.000      87.6480474955444
    ANGLE_2              = 2012-08-20T15:40:00.000      47.2000682450722
    ANGLE_1              = 2012-08-20T15:41:00.000      87.9987571417971
    ANGLE_2              = 2012-08-20T15:41:00.000      47.3107559993952
    ANGLE_1              = 2012-08-20T15:42:00.000      88.3509165377257
    ANGLE_2              = 2012-08-20T15:42:00.000      47.4202801781815
    ANGLE_1              = 2012-08-20T15:43:00.000      88.7045214852068
    ANGLE_2              = 2012-08-20T15:43:00.000      47.5286324291119
    ANGLE_1              = 2012-08-20T15:44:00.000      89.0595674222512
    ANGLE_2              = 2012-08-20T15:44:00.000      47.6358044101106
    ANGLE_1              = 2012-08-20T15:45:00.000      89.4160494177512
    ANGLE_2              = 2012-08-20T15:45:00.000      47.7417877915928
    ANGLE_1              = 2012-08-20T15:46:00.000      89.7739621663061
    ANGLE_2              = 2012-08-20T15:46:00.000      47.8465742587599
    ANGLE_1              = 2012-08-20T15:47:00.000      90.1332999832043
    ANGLE_2              = 2012-08-20T15:47:00.000      47.9501555139423
    ANGLE_1              = 2012-08-20T15:48:00.000      90.4940567995159
    ANGLE_2              = 2012-08-20T15:48:00.000      48.0525232789887
    ANGLE_1              = 2012-08-20T15:49:00.000      90.8562261573262
    ANGLE_2              = 2012-08-20T15:49:00.000      48.1536692977012
    ANGLE_1              = 2012-08-20T15:50:00.000      91.21980120514
    ANGLE_2              = 2012-08-20T15:50:00.000      48.2535853383154
    ANGLE_1              = 2012-08-20T15:51:00.000      91.5847746934106
    ANGLE_2              = 2012-08-20T15:51:00.000      48.3522631960249
    ANGLE_1              = 2012-08-20T15:52:00.000      91.9511389702748
    ANGLE_2              = 2012-08-20T15:52:00.000      48.4496946955487
    ANGLE_1              = 2012-08-20T15:53:00.000      92.3188859774278
    ANGLE_2              = 2012-08-20T15:53:00.000      48.5458716937407
    ANGLE_1              = 2012-08-20T15:54:00.000      92.6880072462162
    ANGLE_2              = 2012-08-20T15:54:00.000      48.6407860822405
    ANGLE_1              = 2012-08-20T15:55:00.000      93.0584938939079
    ANGLE_2              = 2012-08-20T15:55:00.000      48.734429790164
    ANGLE_1              = 2012-08-20T15:56:00.000      93.4303366201671
    ANGLE_2              = 2012-08-20T15:56:00.000      48.8267947868315
    ANGLE_1              = 2012-08-20T15:57:00.000      93.8035257037612
    ANGLE_2              = 2012-08-20T15:57:00.000      48.9178730845344
    ANGLE_1              = 2012-08-20T15:58:00.000      94.1780509994628
    ANGLE_2              = 2012-08-20T15:58:00.000      49.0076567413361
    ANGLE_1              = 2012-08-20T15:59:00.000      94.553901935214
    ANGLE_2              = 2012-08-20T15:59:00.000      49.0961378639075
    ANGLE_1              = 2012-08-20T16:00:00.000      94.9310675095119
    ANGLE_2              = 2012-08-20T16:00:00.000      49.1833086103949
    ANGLE_1              = 2012-08-20T16:01:00.000      95.3095362890519
    ANGLE_2              = 2012-08-20T16:01:00.000      49.2691611933179
    ANGLE_1              = 2012-08-20T16:02:00.000      95.6892964066361
    ANGLE_2              = 2012-08-20T16:02:00.000      49.3536878824972
    ANGLE_1              = 2012-08-20T16:03:00.000      96.0703355593361
    ANGLE_2              = 2012-08-20T16:03:00.000      49.4368810080078
    ANGLE_1              = 2012-08-20T16:04:00.000      96.4526410069577
    ANGLE_2              = 2012-08-20T16:04:00.000      49.5187329631579
    ANGLE_1              = 2012-08-20T16:05:00.000      96.8361995707594
    ANGLE_2              = 2012-08-20T16:05:00.000      49.5992362074904
    ANGLE_1              = 2012-08-20T16:06:00.000      97.2209976324961
    ANGLE_2              = 2012-08-20T16:06:00.000      49.6783832698049
    ANGLE_1              = 2012-08-20T16:07:00.000      97.6070211337466
    ANGLE_2              = 2012-08-20T16:07:00.000      49.7561667511977
    ANGLE_1              = 2012-08-20T16:08:00.000      97.994255575553
    ANGLE_2              = 2012-08-20T16:08:00.000      49.8325793281181
    ANGLE_1              = 2012-08-20T16:09:00.000      98.3826860183897
    ANGLE_2              = 2012-08-20T16:09:00.000      49.9076137554384
    ANGLE_1              = 2012-08-20T16:10:00.000      98.7722970824387
    ANGLE_2              = 2012-08-20T16:10:00.000      49.9812628695337
    ANGLE_1              = 2012-08-20T16:11:00.000      99.1630729482183
    ANGLE_2              = 2012-08-20T16:11:00.000      50.0535195913723
    ANGLE_1              = 2012-08-20T16:12:00.000      99.5549973575316
    ANGLE_2              = 2012-08-20T16:12:00.000      50.1243769296092
    ANGLE_1              = 2012-08-20T16:13:00.000      99.9480536147739
    ANGLE_2              = 2012-08-20T16:13:00.000      50.1938279836853
    ANGLE_1              = 2012-08-20T16:14:00.000      100.342224588583
    ANGLE_2              = 2012-08-20T16:14:00.000      50.261865946925
    ANGLE_1              = 2012-08-20T16:15:00.000      100.737492713847
    ANGLE_2              = 2012-08-20T16:15:00.000      50.3284841096319
    ANGLE_1              = 2012-08-20T16:16:00.000      101.133839994081
    ANGLE_2              = 2012-08-20T16:16:00.000      50.3936758621794
    ANGLE_1              = 2012-08-20T16:17:00.000      101.531248004152
    ANGLE_2              = 2012-08-20T16:17:00.000      50.457434698092
    ANGLE_1              = 2012-08-20T16:18:00.000      101.929697893402
    ANGLE_2              = 2012-08-20T16:18:00.000      50.5197542171158
    ANGLE_1              = 2012-08-20T16:19:00.000      102.329170389117
    ANGLE_2              = 2012-08-20T16:19:00.000      50.5806281282743
    ANGLE_1              = 2012-08-20T16:20:00.000      102.729645800386
    ANGLE_2              = 2012-08-20T16:20:00.000      50.6400502529065
    ANGLE_1              = 2012-08-20T16:21:00.000      103.131104022344
    ANGLE_2              = 2012-08-20T16:21:00.000      50.6980145276839
    ANGLE_1              = 2012-08-20T16:22:00.000      103.533524540786
    ANGLE_2              = 2012-08-20T16:22:00.000      50.7545150076044
    ANGLE_1              = 2012-08-20T16:23:00.000      103.936886437165
    ANGLE_2              = 2012-08-20T16:23:00.000      50.8095458689578
    ANGLE_1              = 2012-08-20T16:24:00.000      104.341168393987
    ANGLE_2              = 2012-08-20T16:24:00.000      50.8631014122619
    ANGLE_1              = 2012-08-20T16:25:00.000      104.74634870057
    ANGLE_2              = 2012-08-20T16:25:00.000      50.9151760651646
    ANGLE_1              = 2012-08-20T16:26:00.000      105.152405259204
    ANGLE_2              = 2012-08-20T16:26:00.000      50.9657643853083
    ANGLE_1              = 2012-08-20T16:27:00.000      105.559315591677
    ANGLE_2              = 2012-08-20T16:27:00.000      51.0148610631554
    ANGLE_1              = 2012-08-20T16:28:00.000      105.967056846201
    ANGLE_2              = 2012-08-20T16:28:00.000      51.0624609247695
    ANGLE_1              = 2012-08-20T16:29:00.000      106.375605804698
    ANGLE_2              = 2012-08-20T16:29:00.000      51.1085589345496
    ANGLE_1              = 2012-08-20T16:30:00.000      106.784938890471
    ANGLE_2              = 2012-08-20T16:30:00.000      51.1531501979149
    ANGLE_1              = 2012-08-20T16:31:00.000      107.195032176245
    ANGLE_2              = 2012-08-20T16:31:00.000      51.1962299639359
    ANGLE_1              = 2012-08-20T16:32:00.000      107.605861392579
    ANGLE_2              = 2012-08-20T16:32:00.000      51.2377936279094
    ANGLE_1              = 2012-08-20T16:33:00.000      108.017401936631
    ANGLE_2              = 2012-08-20T16:33:00.000      51.2778367338734
    ANGLE_1              = 2012-08-20T16:34:00.000      108.429628881284
    ANGLE_2              = 2012-08-20T16:34:00.000      51.3163549770596
    ANGLE_1              = 2012-08-20T16:35:00.000      108.842516984628
    ANGLE_2              = 2012-08-20T16:35:00.000      51.3533442062796
    ANGLE_1              = 2012-08-20T16:36:00.000      109.25604069978
    ANGLE_2              = 2012-08-20T16:36:00.000      51.3888004262428
    ANGLE_1              = 2012-08-20T16:37:00.000      109.670174185031
    ANGLE_2              = 2012-08-20T16:37:00.000      51.4227197998014
    ANGLE_1              = 2012-08-20T16:38:00.000      110.084891314339
    ANGLE_2              = 2012-08-20T16:38:00.000      51.4550986501218
    ANGLE_1              = 2012-08-20T16:39:00.000      110.500165688119
    ANGLE_2              = 2012-08-20T16:39:00.000      51.4859334627771
    ANGLE_1              = 2012-08-20T16:40:00.000      110.915970644358
    ANGLE_2              = 2012-08-20T16:40:00.000      51.5152208877599
    ANGLE_1              = 2012-08-20T16:41:00.000      111.332279270019
    ANGLE_2              = 2012-08-20T16:41:00.000      51.5429577414117
    ANGLE_1              = 2012-08-20T16:42:00.000      111.749064412728
    ANGLE_2              = 2012-08-20T16:42:00.000      51.5691410082665
    ANGLE_1              = 2012-08-20T16:43:00.000      112.166298692749
    ANGLE_2              = 2012-08-20T16:43:00.000      51.5937678428062
    ANGLE_1              = 2012-08-20T16:44:00.000      112.583954515209
    ANGLE_2              = 2012-08-20T16:44:00.000      51.6168355711253
    ANGLE_1              = 2012-08-20T16:45:00.000      113.002004082581
    ANGLE_2              = 2012-08-20T16:45:00.000      51.6383416925029
    ANGLE_1              = 2012-08-20T16:46:00.000      113.420419407404
    ANGLE_2              = 2012-08-20T16:46:00.000      51.6582838808792
    ANGLE_1              = 2012-08-20T16:47:00.000      113.839172325214
    ANGLE_2              = 2012-08-20T16:47:00.000      51.676659986235
    ANGLE_1              = 2012-08-20T16:48:00.000      114.258234507712
    ANGLE_2              = 2012-08-20T16:48:00.000      51.693468035872
    ANGLE_1              = 2012-08-20T16:49:00.000      114.67757747609
    ANGLE_2              = 2012-08-20T16:49:00.000      51.7087062355925
    ANGLE_1              = 2012-08-20T16:50:00.000      115.097172614569
    ANGLE_2              = 2012-08-20T16:50:00.000      51.722372970776
    ANGLE_1              = 2012-08-20T16:51:00.000      115.516991184075
    ANGLE_2              = 2012-08-20T16:51:00.000      51.7344668073522
    ANGLE_1              = 2012-08-20T16:52:00.000      115.937004336085
    ANGLE_2              = 2012-08-20T16:52:00.000      51.7449864926678
    ANGLE_1              = 2012-08-20T16:53:00.000      116.357183126588
    ANGLE_2              = 2012-08-20T16:53:00.000      51.7539309562474
    ANGLE_1              = 2012-08-20T16:54:00.000      116.777498530166
    ANGLE_2              = 2012-08-20T16:54:00.000      51.761299310446
    ANGLE_1              = 2012-08-20T16:55:00.000      117.197921454182
    ANGLE_2              = 2012-08-20T16:55:00.000      51.7670908509924
    ANGLE_1              = 2012-08-20T16:56:00.000      117.618422753029
    ANGLE_2              = 2012-08-20T16:56:00.000      51.7713050574237
    ANGLE_1              = 2012-08-20T16:57:00.000      118.038973242476
    ANGLE_2              = 2012-08-20T16:57:00.000      51.7739415934089
    ANGLE_1              = 2012-08-20T16:58:00.000      118.459543714018
    ANGLE_2              = 2012-08-20T16:58:00.000      51.7750003069624
    ANGLE_1              = 2012-08-20T16:59:00.000      118.880104949293
    ANGLE_2              = 2012-08-20T16:59:00.000      51.7744812305459
    ANGLE_1              = 2012-08-20T17:00:00.000      119.3006277345
    ANGLE_2              = 2012-08-20T17:00:00.000      51.7723845810588
    ANGLE_1              = 2012-08-20T17:01:00.000      119.721082874791
    ANGLE_2              = 2012-08-20T17:01:00.000      51.7687107597186
    ANGLE_1              = 2012-08-20T17:02:00.000      120.141441208677
    ANGLE_2              = 2012-08-20T17:02:00.000      51.7634603518287
    ANGLE_1              = 2012-08-20T17:03:00.000      120.561673622356
    ANGLE_2              = 2012-08-20T17:03:00.000      51.7566341264365
    ANGLE_1              = 2012-08-20T17:04:00.000      120.981751064015
    ANGLE_2              = 2012-08-20T17:04:00.000      51.7482330358805
    ANGLE_1              = 2012-08-20T17:05:00.000      121.401644558032
    ANGLE_2              = 2012-08-20T17:05:00.000      51.7382582152285
    ANGLE_1              = 2012-08-20T17:06:00.000      121.821325219098
    ANGLE_2              = 2012-08-20T17:06:00.000      51.7267109816057
    ANGLE_1              = 2012-08-20T17:07:00.000      122.240764266237
    ANGLE_2              = 2012-08-20T17:07:00.000      51.7135928334163
    ANGLE_1              = 2012-08-20T17:08:00.000      122.659933036682
    ANGLE_2              = 2012-08-20T17:08:00.000      51.6989054494566
    ANGLE_1              = 2012-08-20T17:09:00.000      123.078802999624
    ANGLE_2              = 2012-08-20T17:09:00.000      51.682650687924
    ANGLE_1              = 2012-08-20T17:10:00.000      123.497345769794
    ANGLE_2              = 2012-08-20T17:10:00.000      51.6648305853209
    ANGLE_1              = 2012-08-20T17:11:00.000      123.915533120878
    ANGLE_2              = 2012-08-20T17:11:00.000      51.6454473552556
    ANGLE_1              = 2012-08-20T17:12:00.000      124.333336998743
    ANGLE_2              = 2012-08-20T17:12:00.000      51.624503387143
    ANGLE_1              = 2012-08-20T17:13:00.000      124.750729534452
    ANGLE_2              = 2012-08-20T17:13:00.000      51.602001244805
    ANGLE_1              = 2012-08-20T17:14:00.000      125.167683057067
    ANGLE_2              = 2012-08-20T17:14:00.000      51.5779436649746
    ANGLE_1              = 2012-08-20T17:15:00.000      125.584170106218
    ANGLE_2              = 2012-08-20T17:15:00.000      51.5523335557037
    ANGLE_1              = 2012-08-20T17:16:00.000      126.000163444435
    ANGLE_2              = 2012-08-20T17:16:00.000      51.5251739946782
    ANGLE_1              = 2012-08-20T17:17:00.000      126.415636069196
    ANGLE_2              = 2012-08-20T17:17:00.000      51.4964682274426
    ANGLE_1              = 2012-08-20T17:18:00.000      126.830561224741
    ANGLE_2              = 2012-08-20T17:18:00.000      51.4662196655351
    ANGLE_1              = 2012-08-20T17:19:00.000      127.244912413573
    ANGLE_2              = 2012-08-20T17:19:00.000      51.434431884538
    ANGLE_1              = 2012-08-20T17:20:00.000      127.65866340768
    ANGLE_2              = 2012-08-20T17:20:00.000      51.4011086220437
    ANGLE_1              = 2012-08-20T17:21:00.000      128.07178825945
    ANGLE_2              = 2012-08-20T17:21:00.000      51.3662537755405
    ANGLE_1              = 2012-08-20T17:22:00.000      128.484261312268
    ANGLE_2              = 2012-08-20T17:22:00.000      51.3298714002205
    ANGLE_1              = 2012-08-20T17:23:00.000      128.896057210795
    ANGLE_2              = 2012-08-20T17:23:00.000      51.2919657067119
    ANGLE_1              = 2012-08-20T17:24:00.000      129.307150910914
    ANGLE_2              = 2012-08-20T17:24:00.000      51.2525410587401
    ANGLE_1              = 2012-08-20T17:25:00.000      129.717517689329
    ANGLE_2              = 2012-08-20T17:25:00.000      51.2116019707185
    ANGLE_1              = 2012-08-20T17:26:00.000      130.127133152827
    ANGLE_2              = 2012-08-20T17:26:00.000      51.1691531052742
    ANGLE_1              = 2012-08-20T17:27:00.000      130.535973247174
    ANGLE_2              = 2012-08-20T17:27:00.000      51.1251992707101
    ANGLE_1              = 2012-08-20T17:28:00.000      130.944014265665
    ANGLE_2              = 2012-08-20T17:28:00.000      51.0797454184071
    ANGLE_1              = 2012-08-20T17:29:00.000      131.351232857292
    ANGLE_2              = 2012-08-20T17:29:00.000      51.0327966401703
    ANGLE_1              = 2012-08-20T17:30:00.000      131.757606034556
    ANGLE_2              = 2012-08-20T17:30:00.000      50.9843581655205
    ANGLE_1              = 2012-08-20T17:31:00.000      132.163111180898
    ANGLE_2              = 2012-08-20T17:31:00.000      50.934435358937
    ANGLE_1              = 2012-08-20T17:32:00.000      132.567726057754
    ANGLE_2              = 2012-08-20T17:32:00.000      50.8830337170519
    ANGLE_1              = 2012-08-20T17:33:00.000      132.97142881123
    ANGLE_2              = 2012-08-20T17:33:00.000      50.8301588658023
    ANGLE_1              = 2012-08-20T17:34:00.000      133.374197978394
    ANGLE_2              = 2012-08-20T17:34:00.000      50.7758165575406
    ANGLE_1              = 2012-08-20T17:35:00.000      133.776012493188
    ANGLE_2              = 2012-08-20T17:35:00.000      50.7200126681089
    ANGLE_1              = 2012-08-20T17:36:00.000      134.176851691956
    ANGLE_2              = 2012-08-20T17:36:00.000      50.6627531938787
    ANGLE_1              = 2012-08-20T17:37:00.000      134.576695318579
    ANGLE_2              = 2012-08-20T17:37:00.000      50.6040442487607
    ANGLE_1              = 2012-08-20T17:38:00.000      134.975523529243
    ANGLE_2              = 2012-08-20T17:38:00.000      50.543892061187
    ANGLE_1              = 2012-08-20T17:39:00.000      135.373316896816
    ANGLE_2              = 2012-08-20T17:39:00.000      50.482302971069
    ANGLE_1              = 2012-08-20T17:40:00.000      135.770056414834
    ANGLE_2              = 2012-08-20T17:40:00.000      50.4192834267351
    ANGLE_1              = 2012-08-20T17:41:00.000      136.165723501134
    ANGLE_2              = 2012-08-20T17:41:00.000      50.3548399818498
    ANGLE_1              = 2012-08-20T17:42:00.000      136.560300001088
    ANGLE_2              = 2012-08-20T17:42:00.000      50.2889792923193
    ANGLE_1              = 2012-08-20T17:43:00.000      136.953768190486
    ANGLE_2              = 2012-08-20T17:43:00.000      50.2217081131843
    ANGLE_1              = 2012-08-20T17:44:00.000      137.346110778027
    ANGLE_2              = 2012-08-20T17:44:00.000      50.1530332955058
    ANGLE_1              = 2012-08-20T17:45:00.000      137.737310907474
    ANGLE_2              = 2012-08-20T17:45:00.000      50.082961783244
    ANGLE_1              = 2012-08-20T17:46:00.000      138.127352159432
    ANGLE_2              = 2012-08-20T17:46:00.000      50.0115006101361
    ANGLE_1              = 2012-08-20T17:47:00.000      138.516218552772
